code,Station,Latitude,Longitude,is_junction
BDHL,Badhal,27.2520587,75.4516454,FALSE
KHH,KICHHA,28.913427,79.519746,FALSE
SRKN,Sherekan,29.55519806,74.43499088,FALSE
BKKA,Bhukarka,29.23822731,74.75103096,FALSE
NHR,Nohar,29.19256274,74.77362782,FALSE
PRGD,Perungudi,12.975217,80.231363,FALSE
KNNA,Khinaniyan,29.34563726,74.71795706,FALSE
JKR,JAULKHERA,21.838466,78.216684,FALSE
BYS,BARSALI,21.909813,78.031361,FALSE
GW,GIRWAR,23.838186,78.936311,FALSE
DGD,DANGIDHAR,23.871771,79.019912,FALSE
DOD,DHODHAR,23.770741,75.103546,FALSE
GAJ,GANESHGANJ,23.895862,79.074633,FALSE
JNM,Jayanagar Majilpur Halt,22.168635,88.415324,FALSE
NSD,NASIRABAD,26.29446,74.716991,FALSE
PHA,PATHARIA,23.905726,79.192899,FALSE
NZB,NIZAMABAD,18.679165,78.103238,FALSE
RJO,RAJENDRA PUL,25.387447,86.010546,FALSE
ADT,ADUTURAI,11.009165,79.478668,FALSE
KMU,KUMBAKONAM,10.952962,79.388644,FALSE
MNM,MANAMADURAI JN,9.681539,78.45351,TRUE
GKP,GORAKHPUR JN,26.759311,83.381499,TRUE
VRM,VARNAMA,22.184274,73.169283,FALSE
GKC,GORAKHPUR CANT,26.750649,83.416821,FALSE
ITA,ITOLA,22.149889,73.156746,FALSE
BTU,BARAUT,29.09692,77.273006,FALSE
MOGA,Moga,30.817296,75.168467,FALSE
SIOB,SAMAKHIALI JN,23.309819,70.503394,TRUE
RDK,Rasheedpura Khori,27.713786,75.087121,FALSE
PVD,PEDDAVADIAPUDI,16.414205,80.612645,FALSE
YLM,ELLAMANCHILI,17.553652,82.85262,FALSE
CHPT,Chatrappatti,10.476971,77.655113,FALSE
JLD,JARWAL ROAD,27.120389,81.540406,FALSE
BRJN,BRAJRAJNAGAR,21.822718,83.923653,FALSE
CLJ,COLONELGANJ,27.137698,81.694178,FALSE
KTHL,KATHOLA,27.14655558,81.85566265,FALSE
MND,MUNDERWA,26.776435,82.903373,FALSE
SNSI,SAINAGAR SHIRDI,19.7807923,74.4806877,FALSE
DLJ,DHOLA JN,21.822549,71.738273,TRUE
PGW,PHAGWARA JN,31.21755575,75.76550198,TRUE
JUP,Jhunpa,28.777449,75.521553,FALSE
JSG,JHARSUGUDA JN,21.862274,84.017427,TRUE
KYW,KARCHHUE,26.23112444,84.20715351,FALSE
MHRN,MAHENDRANATH,26.000739,84.509909,FALSE
TKVR,TAPPA KHAJURIAY,25.807401,84.688889,FALSE
DPI,DODDAMPATTI,12.18134581,78.42225009,FALSE
AQG,ASHAPURA GOMAT,26.950232,71.892665,FALSE
NEA,NEYKKARAPATTI,11.612765,78.096697,FALSE
GRL,GORAUL,25.931049,85.318477,FALSE
KHI,KURHANI,25.979631,85.339288,FALSE
VNJ,TIRUPPUR VANJIPALAYAM,11.117791,77.265802,FALSE
CBF,COIMBATORE NORTH,11.019937,76.954304,FALSE
UMB,AMBALA CANT JN,30.338918,76.826966,TRUE
SRO,SIRATHU,25.650642,81.31786,FALSE
SJT,SHUJAATPUR,25.605607,81.401934,FALSE
BDNP,BIDANPUR,25.585017,81.442017,FALSE
MTPC,MOTIPURA CHAUKI,24.60933823,77.04829952,FALSE
HTZ,HATHIDAH JN,25.367027,85.987826,TRUE
DDNI,DUDHNOI,26.001459,90.76188,FALSE
RDE,RUNDHI,28.067751,77.350991,FALSE
IJ,ITAUNJA,27.081067,80.891234,FALSE
RMX,Ramsar,25.722252,70.866078,FALSE
PBE,PILIBHIT JN,28.614978,79.813946,TRUE
RMB,Rampura Beri,28.53013206,75.64547983,FALSE
MGS,MUGHAL SARAI JN,25.278149,83.11925,TRUE
RSWT,Ramgarh Shekhawati,28.169397,74.993046,FALSE
BKNA,BAKAINA HALT,29.0358,78.274731,FALSE
HBD,HOSHANGABAD,22.75274,77.715594,FALSE
ANA,ASLANA,23.860522,79.319493,FALSE
BNI,BUDNI,22.7871143,77.6812826,FALSE
DMGN,DHAMALGAON,27.325566,94.856569,FALSE
LKPL,LAKDIKAPUL,17.404048,78.463527,FALSE
BRUD,BARUD,22.052142,76.814085,FALSE
DVL,DEVLALI,19.897509,73.83729,FALSE
JRTR,Jurtara,22.253005,79.761272,FALSE
REWA,REWA,24.537122,81.250615,FALSE
DOK,DHOLKA,22.731982,72.433842,FALSE
NDR,NANDESARI,22.41833164,73.09527343,FALSE
MYG,MIYAGAM KARJAN,22.050722,73.120353,FALSE
MBA,MAHOBA,25.306914,79.849079,FALSE
JGZ,Jamgaon,22.418426,80.198945,FALSE
BHKH,BAGHOI KUSA,24.83990065,84.46243313,FALSE
NOLI,NOLI,28.746571,77.310771,FALSE
SUJR,SUJRA,29.012729,77.261341,FALSE
AMOD,Amod,21.99079117,72.86546468,FALSE
LKD,LAKODARA,21.991872,73.098994,FALSE
VKL,Vankal,21.43967393,73.23136644,FALSE
BY,BYCULLA,18.97695,72.833211,FALSE
BNR,BHAGWANPUR,25.85831672,85.30109021,FALSE
KTY,Kotturu,14.82678833,76.21354088,FALSE
BLMR,Bhalukmara,26.685532,94.143709,FALSE
ANJ,Anjangaon,21.16319975,77.31896505,FALSE
DEB,Debagram,23.685277,88.306807,FALSE
ELP,Achalpur,21.27760302,77.51926278,FALSE
BTY,Bethuadahari,23.610275,88.384597,FALSE
WARUD,Warud,20.74690548,78.65141943,FALSE
VLKN,Velankanni,10.68687717,79.84618069,FALSE
PCU,PUTLACHERUVU,16.484823,81.112395,FALSE
BNPT,BENNIPATTI PIRAPUR,25.89294937,85.30904789,FALSE
JM,JALAMB JN,20.813007,76.573236,TRUE
GPJ,Gorapur,18.346936,82.79406,FALSE
ABEO,Pattaravakkam,13.11449998,80.16618147,FALSE
SEG,SHEGAON,20.801724,76.690331,FALSE
GDU,Gudru Halt,22.2718946,80.11633958,FALSE
BGNA,Balgona,23.45804972,87.95045645,FALSE
KLNP,Kalinarayanpur,23.206506,88.573216,FALSE
NGZ,S K NAGJIHARI,20.761641,76.755353,FALSE
PS,PARAS,20.724519,76.815865,FALSE
BRDB,Barda,22.15295838,88.08753041,FALSE
GAO,GAIGAON,20.720684,76.890093,FALSE
RRL,REWRAL,21.261121,79.468096,FALSE
KHAT,KHAT,21.242242,79.550792,FALSE
BRD,BHANDARA ROAD,21.238512,79.647523,FALSE
KOKA,KOKA,21.263021,79.712409,FALSE
DAO,DAGHORA,21.857535,83.678086,FALSE
HGR,HEMAGIRI,21.876504,83.742815,FALSE
NIR,Nainpur Junction,22.425676,80.108853,TRUE
NCH,NAKACHARI,26.70813334,94.39391294,FALSE
APDJ,ALIPUR DUAR JN,26.523279,89.534048,TRUE
BRE,BHARWARI,25.5591917,81.4918665,FALSE
JTK,Jhitkia,25.626133,88.052972,FALSE
MNJ,MANOHARGANJ,25.524992,81.559075,FALSE
SYWN,SAIYID SARAWAN,25.494982,81.613788,FALSE
MRE,MANAURI,25.470171,81.662491,FALSE
BMU,BAMHRAULI,25.44494,81.741641,FALSE
SFG,SUBEDARGANJ,25.439879,81.789897,FALSE
KLX,KOLAKALUR,16.295186,80.627521,FALSE
CLVR,CHILUVUR,16.379558,80.616908,FALSE
KVR,KOVVUR,17.007084,81.726495,FALSE
GVN,GODAVARI,17.007707,81.77083,FALSE
KJKD,KANJIKODE,10.800919,76.755316,FALSE
SNKR,Sanka,23.52693,86.616164,FALSE
VNK,Binaiki,22.72003,79.902424,FALSE
GCN,Gocharan,22.277738,88.45837,FALSE
SEY,Seoni,22.075431,79.545769,FALSE
SDMD,Sudamdih,23.654478,86.44032,FALSE
BJU,BARAUNI JN,25.461768,85.988748,TRUE
DMO,DAMOH,23.836693,79.432246,FALSE
ADD,ADAS ROAD,22.48662808,73.03469445,FALSE
CLC,Chalala,21.4155588,71.1622425,FALSE
RNO,RANOLI,22.4052521,73.11226621,FALSE
HP,HARIPUR,26.012397,74.024928,FALSE
KUGT,Kumarghat,24.15063031,92.03483312,FALSE
AWB,AURANGABAD,19.859276,75.310646,FALSE
BNL,BEVINAHALU,15.16697376,77.21298975,FALSE
SMNH,SOMNATH,20.896132,70.408254,FALSE
CUPJ,CUDDALORE PORT,11.715119,79.766287,FALSE
PLJ,PALEJ,21.921578,73.072387,FALSE
GOLE,GOLE,25.891938,72.00004,FALSE
TRO,TIRORA,21.415039,79.918035,FALSE
JMG,JAMGA,21.874971,83.564842,FALSE
AHLR,AHALYAPUR,26.468381,83.824844,FALSE
TEL,TENALI JN,16.242409,80.640413,TRUE
TAT,Tummanamgutta,13.707414,78.379263,FALSE
CU,CHAGALLU,16.965077,81.690558,FALSE
PSDA,PASIVEDALA,16.99331,81.700939,FALSE
MBGA,Marwar Bagra,25.208689,72.593761,FALSE
JNE,JANIYANA,25.827638,72.336284,FALSE
SMR,SAMDHARI JN,25.837202,72.573007,TRUE
SUT,SUTLANA,25.970783,72.951414,FALSE
PBR,PORBANDAR,21.643598,69.615506,FALSE
CKVD,Chikkandawadi,14.13792027,76.20256849,FALSE
BHG,Bhaton Ki Gali,27.105646,75.712919,FALSE
HMO,Hanumangarh Town,29.57422055,74.33120188,FALSE
SANR,SARDARNAGAR,26.700859,83.494054,FALSE
GRD,Giridih,24.1822559,86.3146452,FALSE
CC,CHAURI CHAURA,26.673882,83.545894,FALSE
KMPT,KOMATIPALLI,18.0235473,79.51589222,FALSE
HSP,HASANPARTHI RD,18.078262,79.50185,FALSE
GGY,Gagariya,25.741083,70.734877,FALSE
NNPR,NONAPAR,26.353209,83.969786,FALSE
MW,MAIRWA,26.240309,84.151979,FALSE
KUY,TIRUPPUR KULIPALAYAM,11.14402792,77.38931359,FALSE
PLL,PARLI,10.800415,76.559421,FALSE
AGTL,Agartala,23.792417,91.278481,FALSE
MNY,MANKARAI,10.771526,76.500232,FALSE
LDY,LAKKITI,10.753217,76.434467,FALSE
PLPM,PALAPPURAM,10.75251879,76.39838581,FALSE
OTP,OTTAPPALAM,10.770046,76.377993,FALSE
MNUR,MANNANUR,10.749322,76.323555,FALSE
ZRDE,JIRADEI,26.220819,84.256142,FALSE
SV,SIWAN JN,26.210724,84.359267,TRUE
PCK,PACHRUKHI,26.162628,84.415667,FALSE
DDA,DURAUNDHA JN,26.086973,84.458946,TRUE
CW,CHAINWA,26.022117,84.496496,FALSE
POK,POKRAN,26.930571,71.923129,FALSE
OCH,ODHANIYA CHACHA,26.972848,71.718687,FALSE
EKMA,EKMA,25.967099,84.53637,FALSE
DDP,DAUDPUR,25.90709,84.591425,FALSE
KPS,KOPA SAMHOTA,25.851866,84.652814,FALSE
BTHL,BITHAULI,25.817069,85.29179,FALSE
GB,GAURI BAZAR,26.594934,83.667801,FALSE
BALR,BAITALPUR,26.5526634,83.7385572,FALSE
DEOS,DEORIA SADAR,26.50768117,83.7819591,FALSE
NRA,NUNKHAR,26.425483,83.880179,FALSE
AGMN,Agomoni,26.225947,89.786242,FALSE
BND,BHANDUP,19.14200998,72.93723505,FALSE
ASR,AMRITSAR JN,31.631512,74.858025,TRUE
MUC,MULLURKARA,10.705843,76.271415,FALSE
WKI,WADAKANCHERI,10.648956,76.237041,FALSE
SOG,SURATGARH JN,29.324152,73.907248,TRUE
SNV,Sondad,21.079845,80.094149,FALSE
QMRS,Kayamsar,28.125576,75.000562,FALSE
AYB,Aliyabad,16.878268,75.758306,FALSE
MBF,Munabao,25.742614,70.276543,FALSE
CLDR,Chilikidara,21.243022,85.827112,FALSE
KLYT,Kolayat,27.835319,72.955074,FALSE
CLD,CHALSA JN,26.882215,88.798213,TRUE
CRX,CARRON,26.880279,88.9704,FALSE
ETF,ITARSI F CABIN,22.61521,77.774856,FALSE
CNPI,Chandanpahari,24.404224,86.953082,FALSE
MIG,MIDGHAT,22.828141,77.647526,FALSE
BNU,BANDAKPUR,23.848206,79.575956,FALSE
COD,Chhota Gudha,27.293803,75.599508,FALSE
CHQ,CHOKA,22.864326,77.638968,FALSE
MB,MORADABAD,28.831621,78.765801,FALSE
IRA,ISRANA,29.291379,76.85286,FALSE
KRCA,KARACHIYA YARD,22.380046,73.132981,FALSE
BJW,BAJVA,22.3662226,73.1431251,FALSE
CLN,KOLLIDAM,11.332713,79.718347,FALSE
CNA,CHANDERIYA,24.939558,74.629979,FALSE
CRC,CHARKHARI ROAD,25.307556,79.745653,FALSE
BTT,BHATNI JN,26.381257,83.934035,TRUE
CSZ,Cossimbazar,24.122264,88.266903,FALSE
VRE,VAREDIYA,21.85838,73.048979,FALSE
NIU,NABIPUR,21.807541,73.030592,FALSE
CVJ,CHAVAJ,21.753134,73.010489,FALSE
AKV,ANKLESHWAR JN,21.623889,73.000633,TRUE
CNE,CHANDRANATHPUR,24.984962,92.716658,FALSE
PAO,PANOLI,21.535197,72.978371,FALSE
CNL,CHANDAWAL,25.94654272,73.86881458,FALSE
BFY,BHESANA,25.82438,73.7180903,FALSE
HAT,HATHURAN,21.501091,72.969512,FALSE
COL,Coromandel,12.97518,78.257278,FALSE
KDSD,KUDSAD,21.37682,72.91648,FALSE
SYN,SAYAN,21.317203,72.890287,FALSE
MQP,Makrandpur,28.213407,79.290097,FALSE
GTX,GOTHANGAM,21.294043,72.880104,FALSE
MGK,MULANGUNNATHUKAVU,10.596939,76.207809,FALSE
CNKP,CHANAKYAPURI,28.591905,77.172004,FALSE
URN,UTRAN,21.232602,72.854796,FALSE
ST,SURAT,21.206568,72.840793,FALSE
UDN,UDHNA JN,21.171156,72.851461,TRUE
VRU,VALIVERU,16.188934,80.605456,FALSE
MRPL,MARAMPALLI,16.843925,81.633874,FALSE
NDD,NIDADAVOLU JN,16.898297,81.675504,TRUE
GDM,GUDMA,21.416128,80.287678,FALSE
BEF,BHUPDEOPUR,21.97503504,83.25998102,FALSE
RIG,RAIGARH,21.891289,83.39067,FALSE
KRL,KOTARLIA,21.883182,83.482238,FALSE
CTND,Chettinad,10.160613,78.775924,FALSE
SEPR,SHERPUR,28.919358,78.25287,FALSE
NVS,NAVSARI,20.946851,72.914294,FALSE
JBD,Jalalabad,30.60775,74.268446,FALSE
DDM,DAM DIM,26.859243,88.671333,FALSE
COE,CHITROD,23.417869,70.655356,FALSE
COM,Chomun Samod,27.158223,75.70272,FALSE
DKT,DHULKOT,30.395686,76.787535,FALSE
KUW,KANWAR,25.70365207,81.21464405,FALSE
CDMR,CHANDAULI MJHWR,25.261093,83.267724,FALSE
KGA,KHAGA,25.761853,81.102658,FALSE
KTCE,KATOGHAN,25.730035,81.165606,FALSE
ASCE,ATHSARAI,25.67872881,81.26203008,FALSE
CRLM,Carmelaram,12.907633,77.706014,FALSE
CNR,CHANDAR,15.264834,74.047794,FALSE
CMDP,Chimidipalli,18.262764,83.076862,FALSE
BDL,VINDHYACHAL,25.1607717,82.5020212,FALSE
TSA,TISUA,28.136577,79.586289,FALSE
TAS,Thasra,22.797769,73.221682,FALSE
GHT,GHAGHARA GHAT,27.1026835,81.5033135,FALSE
BV,BABHNAN,26.938525,82.500127,FALSE
CLW,Chilwariya,27.487001,81.698732,FALSE
GAUR,GAUR,26.913411,82.561158,FALSE
TH,TINICH,26.882281,82.639707,FALSE
BHTR,BHATPAR RANI,26.3104766,84.0331014,FALSE
TUR,TURKI,26.034431,85.354709,FALSE
RD,RAM DAYALU NAGAR,26.097367,85.383596,FALSE
BTO,BHITAURA,28.469954,79.306506,FALSE
PKRA,PARSA KHERA,28.433371,79.341852,FALSE
CHTI,CHANETI,28.30879585,79.42916573,FALSE
BLPU,BILPUR,28.083668,79.625781,FALSE
MK,MIRANPUR KATRA,28.03708,79.674809,FALSE
MILA,MILAKPUR HALT,27.98826137,79.71796183,FALSE
TLH,TILHAR,27.972984,79.741776,FALSE
CQL,CHIRAKKAL,11.911049,75.353696,FALSE
PNQ,PUNKUNNAM,10.535054,76.20943,FALSE
TCR,THRISUR,10.51479,76.207919,FALSE
CMNR,CHAMARAJANAGAR,11.934891,76.932807,FALSE
CMJ,CHAMARAJAPURAM,12.29844,76.637861,FALSE
BKA,BARKHERA,22.917359,77.649646,FALSE
ODG,OBAIDULLA GANJ,22.994912,77.587299,FALSE
ACL,ANCHELI,20.845167,72.944978,FALSE
CVR,CHORVAD ROAD,21.055196,70.290734,FALSE
CTH,CHIKALTHANA,19.859565,75.402851,FALSE
BTKD,BHARATKUND,26.6360965,82.1273931,FALSE
DHW,Dhariwal,31.949113,75.321565,FALSE
SAI,SARAI,25.779962,85.276609,FALSE
CPE,Chandiposi,22.068677,84.915988,FALSE
CRU,CHUDAWA,19.18032826,77.11693034,FALSE
DBB,DHUBRI,26.023137,89.977952,FALSE
PNP,PANIPAT JN,29.388948,76.963793,TRUE
CPS,CHANDPUR SIAU HALT,29.13201,78.275855,FALSE
CX,CHANOL,22.427916,70.538842,FALSE
CSR,CHAK SIKANDAR,25.67672024,85.36524615,FALSE
CRQ,Charpokhari Halt,25.36151577,84.48760319,FALSE
VNA,VARANGAON,21.00971319,75.90065779,FALSE
DAG,DHANG,26.7174,85.353298,FALSE
CRW,Charaud,29.0094584,75.6466632,FALSE
BTL,BORTALAO,21.218301,80.626207,FALSE
KHS,KHARSIA,21.99178,83.102414,FALSE
ROB,ROBERTSON,21.988744,83.182508,FALSE
CPK,CHAPARMUKH JN,26.202272,92.511718,TRUE
CTW,Chhintanwala,30.365958,76.014229,FALSE
CTA,Chitradurg,14.231154,76.386431,FALSE
MDKU,MODUKURU,16.124988,80.583808,FALSE
TSR,TSUNDURU,16.157497,80.586487,FALSE
NBM,NAVABPALEM,16.831606,81.606702,FALSE
NMBR,N MAYURBHANJ ROAD,21.666901,87.038724,FALSE
BTS,BASTA,21.7029241,87.0637831,FALSE
CTD,Chhota Udepur,22.314788,74.014286,FALSE
DBY,Digboi,27.383483,95.616982,FALSE
CWI,CHONDI,19.43061977,77.15566662,FALSE
CSDR,CHANNASANDRA,13.01094072,77.66297057,FALSE
PGT,PALAKKAD,10.802091,76.641926,FALSE
MNHA,Mindha,27.112061,75.33241,FALSE
DBO,DABHODA,23.168331,72.748038,FALSE
DABN,DHABAN,29.859997,74.54288,FALSE
DBI,DABLI RATHAN,29.542416,74.19093,FALSE
SID,SIDDHPUR,23.918067,72.367959,FALSE
ARGD,ARIGADA,23.643461,85.466475,FALSE
CTJ,CHHATAINI,23.994088,81.287323,FALSE
KTKD,KATANGI KHURD,23.77586961,80.48673398,FALSE
CRL,Choral,22.450677,75.944135,FALSE
ABSA,Ambassa,23.930507,91.860783,FALSE
NVP,Navalpura,23.289155,73.199554,FALSE
DBKA,Dabka,21.361353,76.720809,FALSE
CQR,Champapukur,22.656634,88.80796,FALSE
NDAZ,NAYA AZADPUR,28.714564,77.166876,FALSE
ANDI,ADARSH NAGAR DELHI,28.714205,77.166707,FALSE
CUR,Churu,28.288281,74.966203,FALSE
BHD,BADLI,28.7468,77.1377425,FALSE
KHKN,KHERA KALAN,28.769718,77.115838,FALSE
HUK,HOLAMBI KALAN,28.801187,77.102334,FALSE
NUR,NARELA,28.846886,77.085727,FALSE
CWA,Chhindwara Junction,22.058201,78.953212,TRUE
RDDE,RATHDHANA,28.904132,77.059148,FALSE
CTPE,Chandanattop Halt,8.932478,76.64532,FALSE
HNN,HARANA KALAN,28.945425,77.039135,FALSE
SNP,SONIPAT,28.989423,77.017343,FALSE
SLKN,SANDAL KALAN,29.063432,77.012589,FALSE
RUG,RAJLU GARHI,29.090744,77.012109,FALSE
GNU,GANAUR,29.130776,77.01075,FALSE
BDMJ,BHODWAL MAJRI,29.1852092,77.0082364,FALSE
SMK,SAMALKHA,29.240172,77.003034,FALSE
DWNA,DIWANA,29.318564,76.980194,FALSE
BBDE,BABARPUR,29.449652,76.966178,FALSE
KFU,KOHAND,29.494782,76.968758,FALSE
GRA,GHARAUNDA,29.541636,76.96575,FALSE
BZJT,BAZIDA JATAN,29.613391,76.965812,FALSE
KUN,KARNAL,29.694566,76.969821,FALSE
BZK,BHAINI KHURD,29.751544,76.955362,FALSE
TRR,TARAORI,29.797906,76.93858,FALSE
NLKR,NILOKHERI,29.831492,76.925491,FALSE
KKDE,KURUKSHETRA JN,29.96944,76.852795,TRUE
DAVM,DHANUVACHAPURAM,8.378802,77.124352,FALSE
CTS,CHATTRIPUT,18.922722,82.590027,FALSE
DAVJ,D.A.V.C.H. JALANDHAR,31.346977,75.56132,FALSE
DLPI,INDRAPURI,28.62834247,77.14358826,FALSE
GRG,Guwarighat,23.110295,79.927613,FALSE
DSJ,DELHI SAFDARJUNG,28.582121,77.186969,FALSE
DHRN,DHURANA,29.253606,76.803295,FALSE
DUK,DUDIA,25.934458,72.902042,FALSE
DAJ,DUROJI,15.227107,76.70013,FALSE
BTPH,CHAKIA THERMAL HALT,25.40126394,86.01624276,FALSE
JDDA,JATHA,22.01598039,82.8753337,FALSE
JDI,JHARRADIH,21.999876,83.050747,FALSE
DKO,Devakottai Road,10.037611,78.761747,FALSE
DIB,DIBAI,28.19378,78.303084,FALSE
CNJO,JUHI OUTER CABIN,26.45319019,80.32390984,FALSE
LMA,LAMBIYA,25.578334,74.585615,FALSE
DOHM,Devgarh Madriya,25.610206,73.855552,FALSE
DYE,DAYANAND NAGAR,17.456247,78.53135,FALSE
DBV,DABILPUR,17.674226,78.470315,FALSE
BGZ,BAHADURGARH,28.700863,76.930886,FALSE
DME,DAMNAGAR,21.688346,71.509053,FALSE
AG,Aranghata,23.242037,88.613551,FALSE
RLG,RELANGI,16.709921,81.64411,FALSE
CCAB,BMY C CABIN,21.209789,81.443063,FALSE
DNDI,DHONDI,19.106268,76.736112,FALSE
NDO,NIDUBROLU,16.067904,80.557243,FALSE
FKA,Fazilka,30.408641,74.025417,FALSE
TDD,TADEPALLIGUDEM,16.809961,81.526314,FALSE
PTPU,PRATTIAPADU,16.820865,81.581431,FALSE
BDHT,Bardi Halt,21.621177,78.822411,FALSE
DJL,Dodajala Lake,13.183156,77.652122,FALSE
DIU,Dhing,26.453101,92.450865,FALSE
DGQ,Dugdol,24.631708,72.096828,FALSE
DAU,Dagru,30.834858,75.047442,FALSE
GWH,GHOSHAWAR,25.73742114,85.24335074,FALSE
HJP,HAJIPUR JN,25.702909,85.2155,TRUE
PUK,PUDUKAD,10.420507,76.260707,FALSE
NYI,NELLAYI,10.392415,76.275994,FALSE
UKL,UTTUKULI,11.156494,77.448615,FALSE
TUP,TIRUPPUR,11.108906,77.341247,FALSE
SNO,SOMANUR,11.087247,77.18638,FALSE
SUU,SULUR ROAD,11.049634,77.11729,FALSE
IGU,IRUGUR,11.017199,77.069134,FALSE
SHI,SINGANALLUR,11.012921,77.039459,FALSE
PLMD,PILAMEDU,11.033241,76.999566,FALSE
CBE,COIMBATORE JN,10.997639,76.966298,TRUE
PTJ,PODANUR JN,10.965425,76.990125,TRUE
MDKI,MADUKARAI,10.900858,76.94295,FALSE
IJK,IRINJALAKUDA,10.339456,76.280924,FALSE
CKI,CHALAKUDI,10.3017975,76.3218076,FALSE
DINR,DIVINE NAGAR,10.28539937,76.33631436,FALSE
KRAN,KORATTI ANGADI,10.260123,76.355901,FALSE
KUC,KARUKKUTTY,10.225757,76.373077,FALSE
AFK,ANGAMALI,10.183676,76.37786,FALSE
CWR,CHOVVARA,10.133064,76.372189,FALSE
DJ,Darjeeling,27.038151,88.263326,FALSE
AWY,ALUVA,10.108163,76.356508,FALSE
KLMR,KALAMASSERY,10.061818,76.326956,FALSE
IPL,EDAPPALLY,10.034338,76.298271,FALSE
ERN,ERNAKULAM TOWN,9.991582,76.2861,FALSE
ETMD,ETTIMADAI,10.898788,76.897155,FALSE
WRA,WALAYAR,10.84718103,76.83761351,FALSE
DBN,Dhablan,30.33791332,76.27691787,FALSE
DBF,Dabpal,18.92798,81.488923,FALSE
DBZ,Dhing Bazar,26.455873,92.481039,FALSE
CLMD,CHULLIMADA,10.837165,76.801793,FALSE
KTKU,KOTTEKAD,10.815731,76.693457,FALSE
DLC,DALMERA,28.417832,73.65658,FALSE
TNU,TIRUNETTUR,9.933729,76.307657,FALSE
KUMM,KUMBALAM,9.906723,76.3116,FALSE
AROR,AROOR HALT,9.8791031,76.302833,FALSE
EZP,EZHUPPUNNA,9.820288,76.302391,FALSE
TUVR,TURAVUR,9.772809,76.309979,FALSE
ERSC,ERNAKULAM JN. C,9.97806,76.289859,TRUE
DIR,DHANAPUR ORISSA,18.945173,82.507393,FALSE
DRN,DEORANIAN,28.64478,79.476473,FALSE
BGS,BEGU SARAI,25.425296,86.134476,FALSE
BQQ,BAKHLETA,23.846381,79.96972,FALSE
GBP,GULABPURA,25.90279519,74.6559545,FALSE
REI,RITHI,23.904168,80.140267,FALSE
MBWC,MORADABAD WEST,28.83865785,78.75963388,FALSE
HRH,HARTHALA,28.87198721,78.73559543,FALSE
GOA,GOHAD ROAD,26.480421,78.439153,FALSE
DHNR,DHANORA DECCAN,19.46551744,78.13275403,FALSE
ALD,ALLAHABAD JN,25.446241,81.828816,TRUE
ETAH,Etah,27.571173,78.653919,FALSE
GG,GANDHIGRAM,23.02676,72.568831,FALSE
BSL,BHUSAVAL JN,21.0472812,75.7886717,TRUE
KOPR,KOPAR ROAD,19.211345,73.077841,FALSE
GGLE,GANGATIKURI,23.71822,88.087286,FALSE
KWD,KARWANDIA,24.953195,84.084599,FALSE
GDD,Gadra Road,25.743851,70.64304,FALSE
SSM,SASARAM,24.955926,84.019423,FALSE
DTAE,DHATRIGRAM,23.277796,88.311822,FALSE
SLOR,SELOO ROAD,20.77665,78.714909,FALSE
SNI,SINDI,20.816446,78.883342,FALSE
DNUA,Dhansura,23.351916,73.19871,FALSE
SGRD,SULGARE,22.019979,82.743775,FALSE
BUA,BARADWAR,22.011725,82.813724,FALSE
SKT,SAKTI,22.011785,82.956526,FALSE
EDU,ERIODU,10.51562799,78.05712899,FALSE
SUJ,SARJU,27.111885,81.648076,FALSE
GDN,GANGAIKONDAN,8.830736,77.786203,FALSE
LDR,LANDAURA,29.814493,77.941557,FALSE
DUN,DUGANPUR,28.658317,79.13019,FALSE
CBJ,CLUTTER BUCK GANJ,28.396895,79.371946,FALSE
BE,BAREILLY,28.3371543,79.4108444,FALSE
DTC,DITOKCHERRA,25.090538,92.798715,FALSE
BPG,BADURPUR GHAT,24.872902,92.581099,FALSE
GIW,Girdharpur,25.845508,76.794583,FALSE
RYS,RASURIYA,28.26396,79.474459,FALSE
NYO,NAYAGAON,25.763263,85.099366,FALSE
PMU,PARMANANDPUR,25.741291,85.133951,FALSE
GIR,Gainsari Junction,27.5268393,82.54417891,TRUE
BPP,BAPATLA,15.9086144,80.4684248,FALSE
APL,APPIKATLA,15.970371,80.514466,FALSE
MCVM,MACHAVARAM,16.025343,80.541541,FALSE
CEL,CHEBROL,16.819948,81.396533,FALSE
GGH,Ghogardiha,26.282768,86.468503,FALSE
BPY,BADAMPUDI,16.828104,81.473751,FALSE
ARD,AMARDA ROAD,21.734258,87.102374,FALSE
PY,PERUNDURAI,11.25334,77.628672,FALSE
FSR,FAQARSAR,30.189431,74.572572,FALSE
CFG,CHAKITING,26.5616754,94.09565462,FALSE
IGR,INGUR,11.22501,77.587299,FALSE
VZ,VIJAYAMANGALAM,11.195525,77.522231,FALSE
DLA,DOULTA,24.998509,78.429325,FALSE
TBT,TALBAHAT,25.039255,78.414552,FALSE
MZX,MATATILA,25.0851,78.40284,FALSE
BZY,BASAI,25.142923,78.394254,FALSE
BAB,BABINA,25.237832,78.451748,FALSE
KHJ,KHAJRAHA,25.304158,78.478365,FALSE
BJI,BIJAULI,25.3764678,78.5177461,FALSE
JHSA,JHANSI A CABIN,25.41949,78.545787,FALSE
JHS,JHANSI JN,25.443585,78.552985,TRUE
KRQ,KARARI,25.5308,78.509084,FALSE
DAA,DATIA,25.64107,78.456356,FALSE
SOR,SONAGIR,25.730668,78.409099,FALSE
KTRA,KOTRA,25.811254,78.381661,FALSE
DBA,DABRA,25.881197,78.331015,FALSE
SMTL,SIMARIATAL,25.92199561,78.30425957,FALSE
AEH,ANANT PAITH,25.9553895,78.27613209,FALSE
FRH,Farhatnagar,27.081164,80.143212,FALSE
GATD,Gautamdhara,23.34988098,85.63299457,FALSE
GEG,Gir Gadhara,20.906347,70.919246,FALSE
FLD,Phulad,25.623979,73.813118,FALSE
GADM,Ganga Dham,27.20976,81.930509,FALSE
DTR,Dhamtari,20.714515,81.550321,FALSE
DRW,DHAREWADA,23.960816,72.378575,FALSE
KZQ,KHIMEL,25.300189,73.279577,FALSE
HDU,HARDUA,23.91505422,80.28341274,FALSE
HDW,HALDWANI,29.215097,79.533732,FALSE
AKT,AKALTARA,22.029121,82.422049,FALSE
HBU,Halbarga,17.98847,77.298175,FALSE
GNH,GANGAKHER,18.973377,76.755511,FALSE
NIA,NAILA,22.022964,82.564589,FALSE
KMGE,KUMAHU,24.976944,83.946305,FALSE
SSG,SHIU SAGAR ROAD,24.999465,83.895453,FALSE
CPH,CHAMPA,22.034731,82.665149,FALSE
GPX,Gautampura Road,23.2008894,75.6819899,FALSE
RGQ,RAIGADH ROAD,23.596666,73.183592,FALSE
GS,GODHANESHWAR,22.68118,72.36834,FALSE
GLH,Gulaothi,28.582962,77.801799,FALSE
HNB,Hasanabad,22.570155,88.912953,FALSE
PUA,PULLA,16.809911,81.324846,FALSE
KKRM,KAIKORAM,16.815341,81.364219,FALSE
JER,JALESWAR,21.79749,87.220491,FALSE
FYZ,FAIZULLAPUR,25.869213,80.893347,FALSE
ED,ERODE JN,11.327682,77.725934,TRUE
HR,Harpalu,28.5690538,75.4910471,FALSE
RUB,RASULABAD,25.826999,80.977088,FALSE
SNIE,SATH NARAINI,25.795325,81.03942,FALSE
DUR,DESUR,15.754344,74.49801,FALSE
CNC,CHINCHLI,16.571697,74.855323,FALSE
MTB,MATLABPUR,28.989821,78.656727,FALSE
KNT,KANTH,29.059768,78.621471,FALSE
MWE,MEWA NAWADA,29.118385,78.613167,FALSE
SEO,SEOHARA,29.204807,78.580977,FALSE
CAJ,CHAKRAJ MAL,29.249784,78.536047,FALSE
DPR,DHAMPUR,29.305446,78.501588,FALSE
HBW,HABIBWALA,29.349034,78.478973,FALSE
GKD,GADHAKDA,21.237962,71.381719,FALSE
PNI,PURAINI,29.388929,78.445574,FALSE
NGG,NAGINA,29.437919,78.424119,FALSE
BEK,BUNDKI,29.522577,78.3932854,FALSE
GYN,GYANPUR ROAD,25.28014401,82.42728836,FALSE
MSDR,MURSHADPUR,29.57239523,78.37564569,FALSE
NBD,NAJIBABAD JN,29.60354,78.335733,TRUE
FZL,FAZALPUR,29.59374102,78.27795372,FALSE
CNK,CHANDOK,29.576786,78.152782,FALSE
BLW,BALAWALI,29.6274345,78.1124328,FALSE
RSI,RAISI,29.6928321,78.06643355,FALSE
AAR,ADESAR,23.5529784,70.9720505,FALSE
HRR,HARIHAR,14.515431,75.812314,FALSE
GVA,Ganguwada,18.66763705,84.1072235,FALSE
GUX,Gurhi,21.629554,76.580745,FALSE
HMH,HANUMANGARH JN,29.614904,74.297633,TRUE
AAM,Angadippuram,10.979489,76.207343,FALSE
PHR,PHILLAUR JN,31.016907,75.785761,TRUE
LDW,LADHOWAL,31.016957,75.785811,FALSE
LDH,LUDHIANA JN,30.912367,75.847873,TRUE
BHOI,DHANDARIKALAN BLOCK HUT,30.894741,75.87188,FALSE
HKR,Kiwar Khed,21.186952,76.8767,FALSE
DDL,DHANDARI KALAN,30.874477,75.909491,FALSE
SNL,SANAHWAL,30.837436,75.9795,FALSE
DOA,DORAHA,30.804137,76.043303,FALSE
JSPN,JASPALON,30.78473759,76.08015227,FALSE
CHA,CHAWAPALL,30.75946257,76.12746498,FALSE
KNN,KHANNA,30.707973,76.225134,FALSE
GVG,GOVINDGARH,30.66948343,76.29707391,FALSE
SIR,SIRHIND JN,30.624222,76.383194,TRUE
SDY,SADHOO GARH,30.5828632,76.4484726,FALSE
SBJ,SARAI BANJARA,30.538386,76.515682,FALSE
RPJ,RAJPURA JN,30.48645895,76.59402019,TRUE
SMU,SAMBHU,30.42902747,76.68414367,FALSE
CDL,CHODIALA,29.896398,77.738546,FALSE
IQB,IQBALPUR,29.875114,77.803799,FALSE
RK,ROORKEE,29.851671,77.87417,FALSE
DNRA,DHANDHERA,29.84340298,77.9019228,FALSE
DSNI,DAUSNI,29.784745,77.979636,FALSE
CPT,CHANNAPATNA,12.659673,77.203824,FALSE
KGF,KATHGHAR,28.826066,78.796689,FALSE
DLP,DALPATPUR,28.820438,78.877187,FALSE
MPH,MUNDHA PANDE,28.800367,78.939038,FALSE
RMU,RAMPUR,28.778863,79.023419,FALSE
SAR,SHAHZAD NAGAR,28.750033,79.052147,FALSE
DAM,DHAMORA,28.707129,79.087745,FALSE
AABH,AMBIKA BHAWANI HALT,25.75143367,84.96900335,FALSE
DGA,DIGHWARA,25.743938,85.003168,FALSE
STLR,SITALPUR,25.76874,85.036638,FALSE
JDR,JIWDHARA,26.581722,84.906874,FALSE
AWP,AGHWANPUR,28.939542,78.702865,FALSE
KIA,KHARI AMRAPUR,23.390711,72.913948,FALSE
IMR,IBRAHIMPUR,16.802926,75.719362,FALSE
JND,JUNAGADH JN,21.530606,70.457612,TRUE
JA,JALIYA,21.81635691,71.632491,FALSE
IDP,INDUPALLI,16.479094,80.877069,FALSE
DBL,DODBELE,13.216441,77.351193,FALSE
KVD,KHURMABAD ROAD,25.021489,83.848303,FALSE
JBO,Jamadobu,23.715139,86.410031,FALSE
KTQ,KUDRA,25.048552,83.793371,FALSE
PSE,PUSAULI,25.097235,83.72151,FALSE
STPT,SITAMPET,16.797409,81.211206,FALSE
JHBN,JHAMATPUR BAHARAN,23.749987,88.098669,FALSE
UBC,AMBALA CITY,30.378497,76.763996,FALSE
JIT,JIRAT,23.098255,88.461461,FALSE
BMD,BHIMADOLU,16.80848173,81.26109679,FALSE
JDD,Jerthi Dadhia,27.731618,75.20107747,FALSE
LXD,LAKSHANNATH ROAD,21.842011,87.250953,FALSE
JGJN,JUGIJAN,26.028001,92.81771,FALSE
JMI,JAMGURI,26.38770715,93.96044797,FALSE
CSM,CANSAULIM,15.344532,73.897226,FALSE
BPW,BURHPURA,25.211179,78.42955,FALSE
IDM,Indemau,26.318344,80.767021,FALSE
KSR,KASTURI,27.139983,81.728838,FALSE
MIR,MAIJAPUR,27.141734,81.773788,FALSE
JNO,Junnor Deo,22.191279,78.592052,FALSE
GDK,GONDA KACHAHRI,27.14022722,81.93402688,FALSE
BRCK,BARUACHAK,27.122672,82.055181,FALSE
JOL,Jogal,21.696442,86.882714,FALSE
ICL,Ichauli,25.520955,80.178833,FALSE
MOTG,MOTIGANJ,27.101387,82.103635,FALSE
JLHI,JHILAHI,27.07260404,82.17287786,FALSE
KAU,Kachna,25.63373832,88.02464254,FALSE
BBHL,Bela Bela,26.13719237,81.24875968,FALSE
JOA,JANWAL,18.55964,76.755147,FALSE
JADR,Jadar,23.745814,72.952369,FALSE
JJW,Jojwa,22.253213,73.642431,FALSE
MUR,MANKAPUR JN,27.039058,82.227648,TRUE
LKNR,LAKHPAT NAGAR,27.02762579,82.27758879,FALSE
MSW,MASKANWA,27.00137923,82.3597396,FALSE
ANU,ANANGUR,11.39694,77.820053,FALSE
POE,Pawapuri Road Halt,25.160225,85.512918,FALSE
SNC,S NARAYAN CHPLA,26.9810021,82.39616599,FALSE
HSB,Hasanbazar Halt,25.26658231,84.34929578,FALSE
BNGY,BAHMAN JYOTIA,26.96626378,82.427355,FALSE
PATI,PARSA TEWARI,26.95565,82.452155,FALSE
JI,JHUSI,25.431145,81.916644,FALSE
GOVR,GOVINDNAGAR,26.864223,82.707468,FALSE
BST,BASTI,26.815678,82.770059,FALSE
ORW,ORWARA,26.802389,82.830311,FALSE
CRV,CHUREB,26.782155,82.977636,FALSE
MOW,MANANWALA,31.612827,74.966562,FALSE
JNL,JANDIALA,31.589979,75.054412,FALSE
TRA,TANGRA,31.576426,75.107232,FALSE
JSH,Jaswantgarh,27.668988,74.443968,FALSE
BTR,BUTARI,31.556444,75.183274,FALSE
BBKR,BABA BAKALARAYA,31.541835,75.238827,FALSE
BEAS,BEAS,31.5193738,75.2908085,FALSE
DIW,DHILWAN,31.498953,75.335011,FALSE
RYM,RAMIDI HALT,31.46595088,75.40784299,FALSE
JKI,Kauriaa Jungle,26.881072,83.299798,FALSE
HMR,HAMIRA,31.45628,75.432702,FALSE
KRE,KARTARPUR,31.432388,75.492544,FALSE
SRX,SURA NUSSI,31.380553,75.541964,FALSE
POM,Punthottam,10.93262802,79.65731229,FALSE
LOHA,Loha,28.006921,74.619424,FALSE
BBSL,BABA SODHAL NAGAR,31.35302035,75.56486813,FALSE
JUC,JALANDHAR CITY,31.331665,75.591499,FALSE
KBA,Kurabalakota,13.666284,78.485843,FALSE
JRC,JALANDHAR CANT,31.306235,75.632106,FALSE
ABE,Ambikeshwar,26.368567,77.963828,FALSE
CEU,CHIHERU,31.26269475,75.70669128,FALSE
MLIH,MAULI HALT,31.175,75.769234,FALSE
MAUL,MAULA ALI,31.17531,75.769544,FALSE
GRY,GORAYA,31.129722,75.774193,FALSE
JTO,Jutogh,31.100734,77.122043,FALSE
JPS,Jamalpur Shaikhan,29.699949,75.857438,FALSE
BTTN,BHATIAN,31.071444,75.780007,FALSE
PPDA,PANCHPATIA DEORIA HALT,25.76873066,84.93612938,FALSE
KHBV,KHARBAO,19.297247,72.983444,FALSE
KEV,KELA DEVI,27.015612,77.329069,FALSE
KDE,KORADACHERI,10.771022,79.490035,FALSE
SHGN,SHRI GHASINAGAR,27.08651484,76.62680541,FALSE
QGT,KOLAGHAT,22.43433092,87.87965366,FALSE
BW,BIWAI,27.11062304,76.69609247,FALSE
KHM,KUSMHI,26.72824,83.453837,FALSE
NYN,NAINI,25.393138,81.860042,FALSE
CTHR,CHITAHRA,24.862627,80.842854,FALSE
STA,SATNA,24.568619,80.827717,FALSE
KALS,KALAS HALT,15.08644671,75.3899777,FALSE
KLPM,KAILASAPURAM,8.847387005,77.9946102,FALSE
KHNP,Khanapur Deccan,17.942175,77.382161,FALSE
KBSH,Krishna Ballabh,24.255819,86.482965,FALSE
KEMA,KUKMA,23.217031,69.766265,FALSE
KKDI,Karaikkudi Junction,10.068518,78.793315,TRUE
JXN,JIRONA,19.407451,77.951395,FALSE
KJZ,KARONJI,23.282475,82.923013,FALSE
KDZ,Kandaghat,30.965544,77.106996,FALSE
NPB,Nagapattinam Beach,10.764487,79.848443,FALSE
MNU,MUNDIKOTA,21.372513,79.834833,FALSE
JWN,Jiwa Arain,30.673761,74.355654,FALSE
KWN,KACHEWANI,21.43031,79.981657,FALSE
AGN,AMGAON,21.36129286,80.3746491,FALSE
DURG,DURG,21.200327,81.291837,FALSE
KPNA,KAPAN,22.026018,82.494827,FALSE
KDTR,KIRODIMALNAGAR,21.926994,83.332507,FALSE
MTGE,MUTHANI,25.173237,83.619143,FALSE
SPF,STUARTPURAM,15.868003,80.406913,FALSE
EE,ELURU,16.717816,81.119762,FALSE
DEL,DENDULURU,16.781406,81.180472,FALSE
AGV,ANGUA,21.892582,87.269923,FALSE
DNT,DANTAN,21.930376,87.284055,FALSE
KHTN,Khutauna,26.494365,86.397414,FALSE
BBU,BHABUA ROAD,25.173007,83.618913,FALSE
KJC,Kasganj City,27.814972,78.658063,FALSE
DGO,DURGAUTI,25.207897,83.539684,FALSE
MVPM,MAVELIPALAIYAM,11.48091401,77.89921205,FALSE
SGE,SANKARIDURG,11.445732,77.870439,FALSE
DCX,DHANICHHA,25.2271654,83.49083723,FALSE
KID,KHAIRAR JN,25.451955,80.236073,TRUE
KHOH,KHOH,25.209491,80.979976,FALSE
KLI,Kauli,30.418388,76.519879,FALSE
KLAR,KULPAHAR,25.29552,79.63751,FALSE
KMS,KARAMNASA,25.239738,83.430892,FALSE
KHBJ,KHANNA BANJARI,23.897087,80.822716,FALSE
SYJ,SAIDRAJA,25.253531,83.35118,FALSE
GAQ,GANJ KHAWAJA,25.273922,83.184363,FALSE
FOCM,FLYOVER CABIN MUGHALSARAI,25.289359,83.172391,FALSE
KCT,Kirakat,25.645355,82.924798,FALSE
KLD,KHALILABAD,26.77453,83.055073,FALSE
MHH,MAGHAR,26.750013,83.133741,FALSE
SIPR,SIHAPAR,26.75790323,83.16487228,FALSE
SWA,SAHJANWA,26.763075,83.2147,FALSE
MWH,MALWAN,26.017246,80.685594,FALSE
JTB,JAGATBELA,26.772224,83.278505,FALSE
KJS,Krishnarajasagar,12.401426,76.567029,FALSE
KLK,Kalka,30.837667,76.931759,FALSE
KKS,KURASTI KALAN,25.955085,80.752455,FALSE
FTP,FATEHPUR,25.917489,80.801869,FALSE
DMG,DOMINGARH,26.765251,83.341993,FALSE
BTK,BANKATA,26.265917,84.09492,FALSE
KKL,KALA BAKRA,31.47518121,75.6303478,FALSE
BAGL,BARAGOPAL,25.765088,84.906765,FALSE
ATNR,AWATAR NAGAR,25.764396,84.956774,FALSE
KHKT,KHOTKHOTI,25.952483,93.754761,FALSE
ARI,ANTRI,26.03523372,78.22669945,FALSE
KDPS,KADIPUR SANI HA,27.862753,80.779037,FALSE
KITN,KHIRI TOWN,27.902944,80.788481,FALSE
MNF,MANDA ROAD,25.162718,82.236678,FALSE
MZP,MIRZAPUR,25.13435,82.569869,FALSE
JHG,JHINGURA,25.12447467,82.65134645,FALSE
PRE,PAHARA,25.11978426,82.72478169,FALSE
DAP,DAGMAGPUR,25.098881,82.800991,FALSE
CAR,CHUNAR,25.103351,82.874703,FALSE
KYT,KAILAHAT,25.155223,82.947581,FALSE
ARW,AHRAURA ROAD,25.19650072,83.01888346,FALSE
JEP,JEONATHPUR,25.23139812,83.06189545,FALSE
NEWC,NEW WEST CABIN,25.27379,83.10921,FALSE
PRKD,POWERKHEDA,22.673479,77.747363,FALSE
ITKL,ITAYAKALAN,23.049837,77.5462,FALSE
KOZ,KOSMA,27.156663,78.837282,FALSE
MDDP,MANDI DIP,23.093747,77.511077,FALSE
KTM,KUTRALAM,11.069825,79.557389,FALSE
NGN,NANDGAON,20.307616,74.659526,FALSE
KTX,KATAKHAL JN,24.83436,92.627067,TRUE
KRBA,Korba,22.337584,82.713013,FALSE
ET,ITARSI JN,22.608258,77.767128,TRUE
KSAR,KUDALA SANGAM,16.306774,75.891059,FALSE
KIAT,KYATSANDRA,13.31619639,77.14811271,FALSE
KSPR,KASHIPURA SARAR,22.120086,73.145838,FALSE
CNT,CONTAI ROAD,22.078584,87.33984,FALSE
KRMD,Kuarmunda,22.286675,84.789851,FALSE
GEA,GHATERA,23.8293873,79.6733909,FALSE
KQD,KHAIRATABAD DCN,17.414221,78.46165,FALSE
MHUL,Mehuwala Halt,29.411154,75.314968,FALSE
ORKI,ORKI,30.091597,73.891318,FALSE
HYA,HADIAYA,30.337054,75.477006,FALSE
MLQ,Malkera Junction,23.779733,86.296949,TRUE
KOHR,Kohir Deccan,17.608886,77.711977,FALSE
HMQ,HIMMATPURA,29.750497,75.860597,FALSE
NBKH,NABA GRAM KANKU,23.661572,88.10026,FALSE
ABKA,AMBIKA KALNA,23.211377,88.353984,FALSE
KMAE,KHAMARGACHHI,23.054229,88.44421,FALSE
IPPM,IPURUPALEM,15.851913,80.385122,FALSE
KNNK,Kanina Khas,28.321249,76.300375,FALSE
NZD,NUZVID,16.649931,80.961528,FALSE
KNH,Konch,25.99510551,79.15770702,FALSE
VAT,VATLUR,16.69451,81.044473,FALSE
HOJ,HAMITONGANJ,26.688907,89.416841,FALSE
KMKD,KHAMKHED,20.904161,76.122339,FALSE
NSI,NIKURSINI,22.004654,87.306186,FALSE
KTKL,KOTLI KALAN,30.04110224,75.29755056,FALSE
JSRD,Jhankad Sarala Road,20.290186,86.304284,FALSE
DPT,Dalpat Singhpur,29.929458,73.524416,FALSE
BLDA,BELDA,22.07144398,87.33691374,FALSE
MAKR,MALKHERI,24.169924,78.223009,FALSE
DC,MAGUDANCHAVADI,11.55092,77.987264,FALSE
BJQ,BAGHORA,24.1358767,78.2603362,FALSE
KYE,KHURAI,24.051525,78.331128,FALSE
SMRR,SUMRERI,24.006945,78.399411,FALSE
KOY,KHEROL,23.310434,72.934133,FALSE
JLM,JALIYA MATH,23.227583,72.877596,FALSE
JRK,JERUWA KHERA,23.973745,78.478729,FALSE
CV,KAVERI,11.351027,77.760945,FALSE
ISH,ISARWARA,23.927214,78.548987,FALSE
NOI,NARIAOLI,23.89567,78.604147,FALSE
KSI,Kosli,28.411947,76.464704,FALSE
RTZ,RATONA,23.83539,78.685372,FALSE
SGO,SAUGOR,23.84735,78.74292,FALSE
KUV,Kundara,8.960373,76.678549,FALSE
DEC,DELHI CANTT,28.613534,77.116577,FALSE
MKRN,MAKRONIA,23.86705,78.808077,FALSE
LDA,LIDHORA KHURD,23.852972,78.872323,FALSE
KYX,KARHIYA BHADELI,23.858464,79.504563,FALSE
GTY,GOLA PATI,23.798776,79.738652,FALSE
SAO,SAGONI,23.81189615,79.81143897,FALSE
SYA,SALAIA,23.84607642,79.96911659,FALSE
KMLR,Kamalur,18.854521,81.276887,FALSE
MJGP,MAJHGAWAN PHATA,23.88313329,80.3474741,FALSE
KMZ,KATNI MURWARA,23.8343563,80.4014844,FALSE
KNPS,Kendposi,22.294845,85.732482,FALSE
BKO,BINDKI ROAD,26.116562,80.580557,FALSE
KSQ,KANSPUR GUGAULI,26.074302,80.625838,FALSE
NGTN,NAGOTHANE,18.539932,73.140769,FALSE
KNF,Khanudih,23.820218,86.192157,FALSE
AGD,AGASOD,24.234023,78.216912,FALSE
KOA,KARONDA,24.330273,78.265477,FALSE
MXS,MOHASA,24.378687,78.2889,FALSE
KORI,Khori,28.187268,76.498091,FALSE
DUA,DHAURA,24.44965,78.321791,FALSE
JLN,JAKHALAUN,24.547359,78.341911,FALSE
JRO,JIRON,24.608534,78.361937,FALSE
LAR,LALITPUR,24.688222,78.395791,FALSE
DWA,DAILWARA,24.78059,78.392945,FALSE
JHA,JAKHAURA,24.870821,78.400513,FALSE
GKB,GHATAKA VARANA,25.506883,76.160353,FALSE
LRD,LAR ROAD,26.21389,83.910183,FALSE
LHM,LEHRA MUHABBAT,30.236037,75.162817,FALSE
JL,JALGAON JN,21.018115,75.562875,TRUE
ARE,ARNETHA,25.38977848,76.01867417,FALSE
LBG,LIMBGAON,19.1764581,77.20613425,FALSE
KPTN,KESHORAI PATAN,25.324522,75.937733,FALSE
GNCN,GURLA N CABIN,25.29723039,75.904656,FALSE
HPR,HIRAPUR,20.42454023,74.93666,FALSE
GQLN,GURLA N,25.29360315,75.90029863,FALSE
MASK,MAISAR KHANA,30.099805,75.13917,FALSE
LKBL,LAKHABAWAL,22.409215,69.999514,FALSE
GQLW,GURLA W,25.29033018,75.8848308,FALSE
KZY,Kayalpattinam,8.566912,78.09973,FALSE
GQL,GURLA,25.270233,75.885268,FALSE
SNJL,SANJALI,21.57580912,72.98861337,FALSE
KURO,Korari,26.48788,80.529002,FALSE
KSB,KOSAMBA JN,21.464052,72.954598,TRUE
KCCN,KCCN,25.239081,75.879265,FALSE
KMNP,Kishan Manpura,27.299546,75.504945,FALSE
STN,SITARAMPUR,23.723864,86.896472,FALSE
TNW,THAPAR NAGAR,23.769198,86.70137,FALSE
MAI,MEHSI,26.354898,85.096319,FALSE
LMT,ALMATTI,16.3459,75.9005,FALSE
KXK,Kharkhauda,28.833445,77.739043,FALSE
LKDU,Lankalakoderu,16.534517,81.681244,FALSE
ABKP,AMBIKAPUR,23.137032,83.145109,FALSE
LM,LIMBDI,22.56604,71.789599,FALSE
LGO,LalgopalGanj,25.642195,81.630185,FALSE
CI,CHHAPRA KACHERI,25.785987,84.747095,FALSE
GJH,GOLDINGANJ,25.754174,84.827254,FALSE
LAP,Lohapur,24.302357,87.963719,FALSE
JAQ,JANDRAPETA,15.809517,80.333681,FALSE
CLX,CHIRALA,15.830755,80.353602,FALSE
VRVL,VIRAVALLI,16.615947,80.912201,FALSE
KUP,KUP,30.60073163,75.85284596,FALSE
LLJ,LalGanj,26.172392,80.973175,FALSE
CKB,CHAUTH KA BARWARA,26.051333,76.149053,FALSE
CRKR,CHAURAKHERI,24.567234,77.122019,FALSE
DXD,DIGOD,25.196344,76.015396,FALSE
KJME,KAJORAGRAM,23.615327,87.184665,FALSE
MAE,Matheran,18.989244,73.270911,FALSE
MADA,Maonda,27.809478,75.827673,FALSE
VRPD,VIRAPANDY ROAD,11.59699,78.074581,FALSE
KBN,KARBIGWAN,26.200502,80.502629,FALSE
AUNG,AUNG,26.16423,80.544495,FALSE
LNN,LONAND,18.040769,74.190477,FALSE
SLV,SANDALPUR,26.113488,78.196395,FALSE
STLI,SITHOULI,26.145594,78.187004,FALSE
GWL,GWALIOR JN,26.216483,78.182292,TRUE
RRU,RAYARU,26.307454,78.129864,FALSE
BAO,BANMOR,26.355565,78.0989272,FALSE
KXA,Kuanriya,25.130668,74.000153,FALSE
NUB,NURABAD,26.406044,78.078092,FALSE
SANK,SANK,26.43052,78.059751,FALSE
MRA,MORENA,26.500504,78.003442,FALSE
HET,HETAMPUR,26.611148,77.942969,FALSE
GHER,GHER,26.666953,77.950981,FALSE
DHO,DHAULPUR,26.697592,77.906049,FALSE
KZB,Kurumbur,8.585755,78.03964,FALSE
NCU,Nallacheruvu,14.020565,78.177734,FALSE
MIA,MANIA,26.805806,77.91965,FALSE
JJ,JAJAU,26.934561,77.936725,FALSE
BFP,BILOCHPURA AGRA,27.202619,77.987169,FALSE
LWS,LUKWASA,25.110195,77.590102,FALSE
RNKA,RUNKUTA,27.22285,77.897935,FALSE
TKEC,TUGLAKABAD EAST CABIN,28.547701,77.276461,FALSE
MALA,MALA,28.592851,79.916972,FALSE
MBO,Mairabari,26.450839,92.421058,FALSE
MAA,MAVAL,24.432277,72.70044,FALSE
KWI,KIVARLI,24.54050716,72.8424187,FALSE
SLBN,SALAI BANWA,24.42121336,83.00889544,FALSE
NKJ,NEW KATNI JN,23.81363704,80.42045394,TRUE
MMM,MANDAPAM,9.280516,79.157354,FALSE
MJHL,MAJADA HALT,28.461762,78.743209,FALSE
MLMG,MALLEMADUGU,17.32513819,80.16058821,FALSE
RTGN,RATANGAON,23.83657609,79.89251063,FALSE
PTHD,PATOHAN,23.91401651,80.19046729,FALSE
MLSU,MALSAILU,19.86804892,77.12323764,FALSE
ABS,ABOHAR,30.13938342,74.19568618,FALSE
MONJ,MONGLAJHORA,26.259236,89.963309,FALSE
MHO,MAHPUR,25.605166,83.246984,FALSE
GSPR,GOSALPUR,23.381806,80.059225,FALSE
MML,MADAN MAHAL,23.159475,79.920425,FALSE
MLP,MALLAPUR,15.672447,75.610219,FALSE
ABW,Abutara Halt,26.0707762,89.5868746,FALSE
VGL,VAGHLI,20.522649,75.074337,FALSE
MGB,Mudigubba,14.349934,77.994996,FALSE
MKSR,Mokalsar,25.62535022,72.51804452,FALSE
MYK,MAYAKONDA,14.284214,76.081381,FALSE
DKZ,DELHI KISHANGANJ,28.664732,77.201256,FALSE
MORA,MORAIYA,22.946834,72.454814,FALSE
KRZ,KHARAWAR,28.83154,76.681044,FALSE
MKDD,MUKUNDWADI HALT,19.859544,75.367553,FALSE
ABX,AMBARI,19.6893607,78.21668478,FALSE
BQT,BAKTAR NAGAR,23.589945,87.156899,FALSE
RNG,RANIGANJ,23.602851,87.11698,FALSE
NMC,NIMCHA,23.626716,87.090288,FALSE
KPK,KALIPAHARI,23.6652,87.01593,FALSE
ASNE,ASANSOL EAST,23.686432,86.991176,FALSE
ASN,ASANSOL JN,23.691441,86.975152,TRUE
BCQ,BARACHAK,23.706726,86.928133,FALSE
MIAL,Milaoli,26.296423,78.120963,FALSE
ZARP,ZARAP,15.94768,73.734105,FALSE
MGI,Manigachi,26.213719,86.146605,FALSE
MHN,Mahanadi,26.882301,88.318628,FALSE
MKRD,Machhakunda,18.566875,82.666955,FALSE
MHI,Manihari,25.34321547,87.61972501,FALSE
TOU,TELAPROLU,16.598822,80.890556,FALSE
MDKD,MADHUKUNDA,23.62663,86.869091,FALSE
PMPR,PAMPORE,26.24510008,80.48354242,FALSE
MRJ,MIRAJ JN,16.819946,74.638839,TRUE
BHA,BHANDAI,27.06906445,77.96680748,FALSE
MNWL,MANWAL,32.769105,75.132225,FALSE
AGC,AGRA CANTT,27.157992,77.990153,FALSE
RKM,RAJA KI MANDI,27.193811,77.996613,FALSE
KXM,KITHAM,27.253709,77.817054,FALSE
FHT,FARAH TOWN,27.318183,77.758086,FALSE
MDVL,MANDAVALLI,16.51880931,81.16074404,FALSE
FAR,FARAH,27.334474,77.743659,FALSE
CPLE,CHINPAI,23.839677,87.460637,FALSE
BAD,BAAD,27.3959406,77.68965184,FALSE
VRBD,VRINDABAN ROAD,27.555461,77.622835,FALSE
AJH,AJHAI,27.63615,77.558423,FALSE
CHJ,CHATA,27.711992,77.502978,FALSE
KSV,KOSI KALAN,27.788551,77.445999,FALSE
BNCR,BANCHARI,27.953085,77.362553,FALSE
MJNL,MAJRI NANGAL,28.011997,76.554869,FALSE
DSPT,DANISHPET,11.85891916,78.13825634,FALSE
SHLK,SHOLAKA,27.973644,77.360583,FALSE
PWL,PALWAL,28.151841,77.342232,FALSE
AST,ASAOTI,28.250878,77.323569,FALSE
PYLA,PIYALA BLOCK HUT,28.288129,77.317824,FALSE
BVH,BALLABGARH,28.34086092,77.31277597,FALSE
TNT,TINNAPPATTI,11.812422,78.098803,FALSE
KPPR,KARUPPUR,11.724176,78.090379,FALSE
FDN,FARIDABAD NEW TOWN,28.376248,77.309368,FALSE
TKDC,TUGLAKABAD CABIN,28.458853,77.303032,FALSE
TKD,TUGLAKABAD,28.511963,77.294046,FALSE
MIN,Mihinpurwa,28.02734412,81.38446715,FALSE
MME,Mul Marora,20.053466,79.658279,FALSE
MDPB,MADHOPUR PUNJAB,32.359168,75.594728,FALSE
GILA,GHIALA,32.151615,75.643939,FALSE
MEX,MUKERIAN,31.941873,75.611838,FALSE
MLC,MALKISAR,28.654232,73.862645,FALSE
KVJ,KESHAVGANJ,24.856164,73.071329,FALSE
NEMA,Nema Halt,25.40959229,85.07224851,FALSE
MV,MAYILADUTURAI JN,11.095237,79.62868,TRUE
NILE,NIMTITA,24.625338,88.00764,FALSE
BLRD,BALA ROAD,22.80462,71.703754,FALSE
MRTY,MURTI,18.681887,76.591573,FALSE
MCJ,MANJATTIDAL,10.792057,78.731401,FALSE
VG,VIRAMGAM JN,23.129098,72.052968,TRUE
RHNE,ROHINI,20.36287145,74.85980072,FALSE
XSK,SOKALI,23.10318792,72.09033854,FALSE
JKA,JAKHVADA,23.08720761,72.13538132,FALSE
VCN,VIROCHANNAGAR,23.07848423,72.19618361,FALSE
TGR2,BLOCK AND CATCH SIDING CABINE NO.2,19.701406,73.499954,FALSE
MZH,MAUHARI,23.118661,81.769465,FALSE
MVD,MULVAD,16.620372,75.746926,FALSE
NDV,NIDVANDA,13.24514195,77.27312551,FALSE
CE,CHHARODI,23.04912352,72.25091861,FALSE
MRHA,Murahara,24.91338044,86.93452611,FALSE
WSE,VASAN IYAWA,23.02655761,72.31312501,FALSE
NANR,Naranpur,21.617209,85.637868,FALSE
SAU,SANAND,23.02421582,72.38474947,FALSE
GGM,GORA GHUMA,23.038848,72.454405,FALSE
ABD,AMBLI ROAD,23.05437,72.494044,FALSE
CLDY,CHANDLODIYA,23.074516,72.543606,FALSE
NDH,Nindhar Benar,27.00388171,75.72909641,FALSE
KOTA,KOTA JN,25.223553,75.8805,TRUE
SBTF,SABARMATI F CABIN,23.085912,72.570106,FALSE
MTH,MATAUNDH,25.418978,80.148507,FALSE
NAD,NAGDA JN,23.45592,75.412491,TRUE
KRSA,KHARSALIYA,22.70508794,73.55448093,FALSE
DRL,DEROL,22.630205,73.462158,FALSE
NDY,Nandi Halt,13.384142,77.712486,FALSE
BRC,VADODARA JN,22.310756,73.181065,TRUE
BKRL,BAKROL,22.58810268,73.41920428,FALSE
TNGR,THONGANUR,12.08227,78.358665,FALSE
BDY,BUDDIREDDIPPATI,12.04465861,78.3127518,FALSE
BQI,BOMMIDI,11.98469844,78.24628054,FALSE
LCR,LOKUR,11.927787,78.174049,FALSE
MZQ,MAJGAON ASSAM,26.430697,90.574137,FALSE
CPN,CHAMPANER RD JN,22.541916,73.393378,TRUE
LAN,LOTANA,22.523268,73.363557,FALSE
SMLA,SAMLAYA JN,22.483966,73.302104,TRUE
AIR,ALINDRA ROAD,22.440575,73.239854,FALSE
PIO,PILOL,22.39641,73.186675,FALSE
MQX,MERALGRAM,24.19691,83.709634,FALSE
CYI,CHHAYAPURI,22.388284,73.179698,FALSE
MYE,Mandhali,31.204703,75.831855,FALSE
SRWN,SARASWATINAGAR,21.251382,81.603905,FALSE
MWF,MAGARDAHA,24.388753,82.905844,FALSE
MFQ,MAHROI,23.951414,80.919501,FALSE
LEK,LAKHAKHERA,23.7639,80.574139,FALSE
NDM,NIDAMANURU,16.507237,80.730551,FALSE
MTR,MOTIPUR,26.25703872,85.16819722,FALSE
MRLI,Murli Halt,25.017163,87.773199,FALSE
MWRN,Madwarani,22.165407,82.711553,FALSE
RXM,ROOMA,26.35704,80.430357,FALSE
NIRA,NIRA,18.10496492,74.20908244,FALSE
ULT,KULTI,23.737816,86.84887,FALSE
MTV,Matalkunta,17.768291,77.56294,FALSE
BRR,BARAKAR,23.7416829,86.818859,FALSE
KMME,KUMARDUBI,23.747453,86.794065,FALSE
MMU,MUGMA,23.751414,86.747614,FALSE
KAO,KALUBATHAN,23.758149,86.661294,FALSE
PKA,PRADHANKHUNTA,23.77259,86.515977,FALSE
MSTH,Misrikh Tirath,27.422484,80.530303,FALSE
MRIJ,Murliganj,25.888506,87.000446,FALSE
DOKM,DOKRA HALT,23.782884,86.480808,FALSE
DHN,DHANBAD JN,23.790966,86.428956,TRUE
MGWN,MAHGAWAN HALT,25.817256,82.696251,FALSE
DDD,DHONDHA DIH,25.672848,83.79552,FALSE
KHED,KHED,17.712059,73.408815,FALSE
AT,ASNOTI,14.876286,74.147683,FALSE
MTM,Machilipatnam,16.171258,81.137763,FALSE
JN,JHUND,23.16060896,71.93614663,FALSE
SADL,SADLA,23.134597,71.850678,FALSE
BDI,BHADLI,21.02366325,75.67291233,FALSE
TRW,TARSOD,21.025557,75.633215,FALSE
OSA,AUSA ROAD,18.37722963,76.40799217,FALSE
KJ,KAJGAON,20.573753,75.140405,FALSE
NMD,NOMODA,26.280074,76.57945,FALSE
HDGR,HADGAON ROAD,19.332339,77.722863,FALSE
PRJ,PRANTIJ,23.439324,72.862688,FALSE
CSN,CHALISGAON JN,20.464109,74.999049,TRUE
BRGZ,VADODARA E CABIN,22.363671,73.159395,FALSE
NRV,NARIYAR,26.240376,85.217642,FALSE
NRY,Nyoriya Husenpur,28.734528,79.889661,FALSE
PPF,PIPLAJ,26.164809,74.377466,FALSE
APA,AMARPURA,26.110973,74.249302,FALSE
NUQ,NAGAR UNTARI,24.285735,83.514165,FALSE
KSE,KOSAD,21.255892,72.86573,FALSE
SBC,BANGALORE CITY JN,12.977595,77.568083,TRUE
TLD,TILDA,21.550734,81.794586,FALSE
GED,GULEDAGUDDA RD,16.069516,75.695659,FALSE
NBL,NIMBAL,17.118384,75.859907,FALSE
NVG,Nawagaon,22.088704,78.436386,FALSE
NIL,Nilambur Road,11.278805,76.254779,FALSE
NOMD,Noamundi,22.15311,85.513684,FALSE
ACH,Achalganj,26.444642,80.545415,FALSE
OSRA,Osra,23.1782623,75.7792945,FALSE
PAGM,Pennada Agraharam,16.541296,81.577652,FALSE
NLN,NAILALUNG,25.77437851,93.38880975,FALSE
KDY,KETTANDAPATTI,12.626458,78.571491,FALSE
UGD,UPPUGUNDURU,15.650668,80.194463,FALSE
CJM,CHINNA GANJAM,15.689502,80.236773,FALSE
KVDU,KADAVAKUDURU,15.72254051,80.2572977,FALSE
OTN,OATING,26.4298089,93.98727379,FALSE
NZR,NAZIRA,26.905961,94.72848,FALSE
NMN,Namanasamudram,10.327487,78.777507,FALSE
NPU,Nadiapur,24.385641,92.204092,FALSE
NNX,NANAUTA,29.712202,77.442397,FALSE
MTJ,MATHURA JN,27.480145,77.673117,TRUE
ITRN,Itwari Jn (Ng),21.156859,79.118302,TRUE
BTSR,BHUTESHWAR,27.50137,77.66784,FALSE
HDL,HODAL,27.886147,77.38869,FALSE
OKA,OKHLA,28.559332,77.264825,FALSE
OEL,OEL,27.819798,80.74816,FALSE
PD,PHARADAHAN,27.993457,80.631949,FALSE
MOLK,MOLAKARAMPATTI,12.466956,78.541815,FALSE
KEY,KAGANKARAI,12.412541,78.510114,FALSE
KNNT,KUNNATHUR,12.360518,78.497376,FALSE
SLY,SAMALPATTI,12.311594,78.484032,FALSE
DST,DASAMPATTI,12.251026,78.438356,FALSE
MAP,MORAPPUR,12.124073,78.393874,FALSE
NSA,Nishangara,28.112457,81.311271,FALSE
OGM,Oorgaum,12.95409,78.259747,FALSE
NYG,Nayagarh,21.839609,85.433342,FALSE
MHUR,Mohanpur,24.488461,86.785648,FALSE
ONR,Coonoor,11.343714,76.791337,FALSE
OBM,Obalapuram,15.009799,76.836422,FALSE
KPRR,KOTAPAR ROAD,19.041434,82.30895,FALSE
JTX,JATPIPLI,23.07635433,71.70221634,FALSE
BAJN,BAJANA,23.10173524,71.77207677,FALSE
VSV,VASADVA,23.03516251,71.59528381,FALSE
DHG,DHRANGDHRA,22.9871651,71.4791076,FALSE
SUK,SUKHPUR,23.014848,71.243815,FALSE
HVD,HALVAD,23.0185158,71.1829095,FALSE
DHNL,DHANALA,23.009171,71.084085,FALSE
DVY,DEVALIYA,23.02777493,71.01248185,FALSE
KHXB,KHAKHRECHI,23.056445,70.90346,FALSE
WDHR,WADHARVA,23.07645,70.828521,FALSE
MALB,MALIYA MIYANA,23.10316687,70.75488469,FALSE
KATR,KATARIYA,23.289037,70.604533,FALSE
VONB,VONDH,23.303951,70.399876,FALSE
BCOB,BHACHAU BG,23.301391,70.344972,FALSE
CHIB,CHIRAI BG,23.208801,70.242149,FALSE
BMSB,BHIMASAR BG,23.186504,70.174975,FALSE
GIMC,GANDHIDHAM CABIN,23.095023,70.150716,FALSE
PIP,PIPLIA,24.203693,75.007483,FALSE
PNF,PANGAON,18.634293,76.635315,FALSE
PNRA,PANIARA,25.902065,83.525851,FALSE
PRLI,PARLI VAIJNATH,18.853005,76.524424,FALSE
HRDR,HARSAR DEHRI,32.104872,76.038491,FALSE
RKH,RAKHIYAL,23.260621,72.903803,FALSE
PLK,PALIA KALAN,28.426644,80.582392,FALSE
KVL,KIZHELUR,10.754288,79.743134,FALSE
SHU,SHOLINGHUR,13.013974,79.484589,FALSE
PPA,PIPRA,26.489784,84.985735,FALSE
SBT,SABARMATI JN,23.077546,72.589282,TRUE
SBTA,SABARMATI A CABIN,23.050805,72.592931,FALSE
ANND,ANAND JN,22.561307,72.965733,TRUE
VXD,VADOD,22.515278,73.00645,FALSE
VDA,VASAD JN,22.452351,73.059991,TRUE
VS,VISHVAMITRI,22.283933,73.178656,FALSE
MPR,MAKARPURA,22.232706,73.175422,FALSE
BSCN,BHUSAWAL C CABIN,21.046545,75.821624,FALSE
PDL,PENDEKALLU,15.374513,77.647361,FALSE
OLR,THRISSUR OLLUR HALT,10.473342,76.237184,FALSE
BDRL,BYADARAHALLI,12.5019534,76.75208323,FALSE
Y,YELIYUR,12.51062093,76.82957502,FALSE
ACG,ACHEGAON,20.976217,75.934247,FALSE
CNBI,CHANDARI,26.428098,80.360645,FALSE
RPRL,RAPARLA HALT,15.619244,80.169121,FALSE
KPLL,KOTTA PANDILA PALLI,15.761414,80.281949,FALSE
VTM,VETAPALEMU,15.783376,80.30065,FALSE
IPPN,IPURUPALEM HALT,15.852303,80.385512,FALSE
PUU,Punalur,9.023336,76.916104,FALSE
HJI,HOJAI,26.001794,92.851752,FALSE
RHI,Rakhi,25.68714801,72.55446924,FALSE
MHBG,Mahadev Buzurg,27.451001,82.87452,FALSE
PGC,Panchgachia,25.969294,86.598221,FALSE
GDPT,GUDAPARTI,17.02817475,82.13113916,FALSE
SLO,SAMALKOT JN,17.044827,82.168724,TRUE
PAP,PITHAPURAM,17.11087,82.257512,FALSE
PGP,Panduranga Pura,17.718238,80.76459,FALSE
GLP,GOLLAPROLU,17.15166449,82.29081756,FALSE
MVRM,MALLAVARAM,17.18102505,82.31528514,FALSE
DGDG,DURGADA GATE,17.21247657,82.34899409,FALSE
RVD,RAVIKAMPADU,17.230245,82.368151,FALSE
ANV,ANNAVARAM,17.269633,82.419677,FALSE
PRTN,Pratapnagar,22.281143,73.210289,FALSE
TMPM,TIMMAPURAM,17.28893639,82.45041264,FALSE
RGT,RAJGHAT HALT,21.764462,87.155076,FALSE
RRJ,RAMARAJU PALLI,15.041948,77.617367,FALSE
KVTA,KARUVATTA HALT,9.316791,76.431242,FALSE
PLM,PANELI MOTI,21.874341,70.152647,FALSE
RTGH,Ratangarh Junction,28.06658671,74.62360257,TRUE
SBI,SABARMATI JN,23.072985,72.587162,TRUE
PMH,Parao Mahna,30.811762,75.272772,FALSE
GI,GUDUVANCHERI,12.844886,80.057147,FALSE
UPM,URAPPAKKAM,12.867247,80.071751,FALSE
VDR,VANDALUR,12.89128,80.084393,FALSE
PRGL,PERUNGULATTUR,12.905451,80.095486,FALSE
PLSN,Palsana,27.484876,75.38008,FALSE
RNW,Renwal,27.149463,75.356234,FALSE
CTT,CHITRASANI,24.267558,72.488653,FALSE
IQG,IQBAL GADH,24.34603286,72.53378154,FALSE
SZA,SAROTRA ROAD,24.377144,72.592045,FALSE
NANA,NANA,24.925895,73.110095,FALSE
BBQ,BASIN BRIDGE JN,13.102361,80.271221,TRUE
TMVL,TIRUMULLAIVAYIL,13.11554896,80.13704247,FALSE
KBT,KADAMBATTUR,13.099513,79.862172,FALSE
TO,TIRUVALANGADU,13.090096,79.763145,FALSE
EL,ELAMANUR,10.879069,78.57336,FALSE
SUBL,HUBLI SOUTH,15.332581,75.17639,FALSE
RR,RICHHA ROAD,28.717269,79.488904,FALSE
RGH,RAMGARHWA,26.87384283,84.79714865,FALSE
SES,SEMARI,24.07001,73.841822,FALSE
PUC,PUDUCHATIRAM,11.54052991,79.73039395,FALSE
RHA,Ranaghat Junction,23.173344,88.568184,TRUE
PVL,PASUPATIKOVIL,10.884228,79.19204,FALSE
RPZ,Ranapratapnagar,24.582417,73.728056,FALSE
RAGM,RAJAGAMBIRAM,9.725053,78.409255,FALSE
CVD,CHAVADIPALAIYAM,11.255404,77.800933,FALSE
RCRA,Ramchaura,26.9979519,83.26840578,FALSE
RJAK,RAJNAGAR,24.90347607,79.87690026,FALSE
DPL,DANAULI PHLWRIA,25.420471,86.249406,FALSE
SFE,Sanodiya,27.011244,75.279108,FALSE
BH,BHARUCH JN,21.706907,72.997689,TRUE
BDWD,BODWAD,20.9035827,76.017046,FALSE
KLHD,KOLHADI,20.900243,76.058938,FALSE
DMD,DHARMADAM,11.778949,75.46377,FALSE
QLD,QUILANDI,11.446139,75.693924,FALSE
SK,SAKHUN,26.73807863,75.09118941,FALSE
HNHL,Harnahalli,14.04849031,75.45828601,FALSE
AJJ,ARAKKONAM,13.081512,79.667991,FALSE
AVN,ANAVARDIKHANPET,13.05050406,79.56735043,FALSE
RMV,RAMAVARAPPADU,16.52620138,80.67971388,FALSE
GOY,GOVINDPURI,26.454423,80.313203,FALSE
JTJ,JOLARPETTAI,12.560852,78.57782,FALSE
CPNL,KANPUR C PANEL,26.453655,80.318069,FALSE
DEOR,DIYODAR,24.113489,71.770888,FALSE
PFL,PIPRALA,23.652484,71.097619,FALSE
GMC,KANPUR GOODS MARSHAL,26.452292,80.33956,FALSE
RMP,RAHIMATPUR,17.612152,74.17217,FALSE
RRP,Rairangpur,22.440956,86.1642075,FALSE
RJY,RAJAMUNDRY,16.984159,81.783901,FALSE
PTPR,Pratabpur,28.47641889,79.81454552,FALSE
RSNR,Rai Singh Nagar,29.535956,73.450472,FALSE
RNB,Ranpura,26.579427,77.44262,FALSE
RSA,Risama,21.058881,81.324776,FALSE
TI,TIRUNINRAVUR,13.123744,80.026949,FALSE
RLX,Ramanujampalli,14.440531,77.87191,FALSE
VEU,VEPPAMPATTU,13.123937,79.998727,FALSE
PLMG,PULIYAMANGALAM,13.08349683,79.68623783,FALSE
KSVM,KESAVARAM,16.930994,81.879858,FALSE
DWP,DWARAPUDI,16.927556,81.922661,FALSE
AWR,ALWAR,27.559273,76.621265,FALSE
APT,ANAPARTI,16.935817,81.953181,FALSE
BVL,BIKKAVOLU,16.96931683,82.03114807,FALSE
PBD,PEDABRAMADVAM,16.990821,82.078986,FALSE
MPU,MEDAPADU,17.005091,82.096133,FALSE
CRPM,CHANDRAMPALEM,17.08540953,82.22310966,FALSE
HVM,HAMSAVARAM,17.309947,82.484867,FALSE
TUNI,TUNI,17.36108,82.542462,FALSE
GLU,GULLIPADU,17.409805,82.63345,FALSE
NRP,NARSIPATNAM RD,17.452852,82.724605,FALSE
REG,REGUPALEM,17.505201,82.790267,FALSE
BVM,BAYYAVARAM,17.660147,82.930592,FALSE
KSK,KASIMKOTA,17.673315,82.963751,FALSE
AKP,ANAKAPALLE,17.695503,83.008851,FALSE
THY,THADI,17.686438,83.064292,FALSE
DVD,DUVVADA,17.703843,83.152059,FALSE
ROL,Rajuli,20.171116,79.703505,FALSE
MRB,MUNIRABAD,15.308524,76.335537,FALSE
RTK,Ramtek,21.400715,79.326499,FALSE
RIM,Rajim,20.969475,81.867426,FALSE
SJNP,SUJANPUR,32.31198,75.613465,FALSE
SGRA,SANGARIA,29.792508,74.466053,FALSE
TBM,TAMBARAM,12.92603569,80.11915738,FALSE
TBMS,TAMBARAM SANATORIUM,12.937978,80.131614,FALSE
CMP,CHROMEPET,12.951627,80.141157,FALSE
PV,PALLAVARAM,12.968273,80.152451,FALSE
JSR,JASRA,25.280002,81.774617,FALSE
SBHR,Subrahmanya Road,12.73127246,75.55761503,FALSE
SCL,SILCHAR,24.830338,92.786795,FALSE
SHM,KOLKATA SHALIMAR,22.555508,88.315615,FALSE
SCO,SATUNA,19.494861,76.348052,FALSE
SAPT,Sugapahari,24.27891967,86.56873572,FALSE
SAF,SALKHAPUR,25.655084,82.680471,FALSE
NGP,NAGPUR,21.153567,79.089004,FALSE
SKS,SALEKASA,21.30163,80.493224,FALSE
SOD,SOJAT ROAD,25.862203,73.755672,FALSE
SMV,Sumaoli,26.37298891,77.91546154,FALSE
SGRL,SINGRAULI,24.204257,82.642735,FALSE
SKW,Sheikhupur,28.003862,79.10473,FALSE
SAK,Sak Bahadurpur,22.178375,73.559848,FALSE
SAHI,SATHI,27.015885,84.503862,FALSE
SFA,SANHERA HALT,28.903375,77.282339,FALSE
SFDE,SAFIDON,29.39793,76.661424,FALSE
SD,SIDHAULI,27.281002,80.837587,FALSE
MDVE,MAHENDRA VADI,13.022631,79.517851,FALSE
AMG,ALAMNAGAR,26.84708,80.860312,FALSE
SDG,SAHADAI BUZURG,25.66149086,85.45508755,FALSE
SGDP,Sagadapata,21.244692,85.909396,FALSE
PNK,PANKI,26.459172,80.236441,FALSE
SLGR,SIMALUGURI JN,26.917281,94.756816,TRUE
SG,SHAHGARH,28.559235,80.043015,FALSE
MNI,MANGAON,18.247286,73.275679,FALSE
KXJ,Karimganj Junction,24.860717,92.373769,TRUE
HAA,HARWADA,14.740762,74.259657,FALSE
ANKL,ANKOLA,14.645347,74.332936,FALSE
SDC,SAIDABAD,25.379137,82.120195,FALSE
MS,CHENNAI EGMORE,13.077678,80.260193,FALSE
KRV,KARAVADI,15.553014,80.113156,FALSE
ANB,AMMANABROLU,15.596402,80.148353,FALSE
KAQ,KOLANUKONDA,16.448173,80.604782,FALSE
KCC,KRISHNA CANAL,16.477152,80.604553,FALSE
SPRM,Sitapuram Halt,18.814443,83.982854,FALSE
SLPM,Shivalingapuram,18.196655,83.066187,FALSE
BZA,VIJAYAWADA JN,16.518262,80.618648,TRUE
RYC,Rayakkottai,12.514891,78.027508,FALSE
GALA,GUNADALA,16.537426,80.667911,FALSE
SBW,Shewbabudih,23.659482,86.390668,FALSE
MBD,MUSTABADA,16.546882,80.731768,FALSE
GWM,GANNAVARAM,16.555839,80.795715,FALSE
PAVP,PEDDA AVUTAPALE,16.562545,80.839432,FALSE
SDI,Sagardighi,24.287789,88.105398,FALSE
SDNR,Seydunganallur,8.639358,77.834992,FALSE
RUT,RATNAL,23.186898,69.897403,FALSE
ERS,ERNAKULAM JN,9.969542,76.290672,TRUE
DK,Dakor,22.747203,73.1585918,FALSE
MGLI,Mangli,20.643536,79.666123,FALSE
SVH,Sonadanga,23.636393,88.354092,FALSE
SMBX,SAMBA,32.528358,75.120256,FALSE
SEX,Seroni Road,25.943966,76.884471,FALSE
SOS,SOMESAR,25.520226,73.450999,FALSE
SUKU,Suku,18.714329,82.726061,FALSE
PWU,PARANUR,12.7302,79.98366,FALSE
SKL,SINGAPERUMAL KOIL,12.76246043,80.00105896,FALSE
MMNK,MARAIMALAM NAGAR,12.79662,80.019875,FALSE
CTM,KATTANGULATTUR,12.805715,80.026118,FALSE
POTI,POTHERI HALT,12.820868,80.03693,FALSE
TLM,TRISULAM,12.98064,80.166111,FALSE
MN,MINAMBAKKAM,12.98432,80.174625,FALSE
PZA,PALAVANTHANGAL,12.990115,80.186651,FALSE
STM,ST THOMAS MOUNT,12.994906,80.199392,FALSE
GDY,GUINDY,13.007672,80.211922,FALSE
SP,SAIDAPET,13.02415,80.224183,FALSE
MBM,MAMBALAM,13.038154,80.228164,FALSE
MKK,KODAMBAKAM,13.052566,80.231305,FALSE
NBK,NUNGAMBAKKAM,13.065363,80.232742,FALSE
MSC,CHENNAI CHETPAT,13.074663,80.24337,FALSE
SQF,SUKRITIPUR,24.913078,92.582849,FALSE
SXR,SERNDANUR,11.869105,79.518251,FALSE
PRAR,PAROR,32.08098,76.460155,FALSE
HNH,HANUMANAHALLI,14.35894762,75.99878145,FALSE
SPGR,SAMPIGE ROAD,13.270203,76.760983,FALSE
SPX,SAPATGRAM,26.334709,90.109558,FALSE
SSZ,SADDA SINGHWALA,30.02825581,75.32479556,FALSE
CWLE,CHOWRIGACHA,23.942472,88.186451,FALSE
LRU,LALPUR UMRI,26.429998,76.680536,FALSE
MXL,MOKHOLI,26.160967,76.460845,FALSE
TNGL,TORANAGALLU,15.203137,76.663924,FALSE
SVHE,SISVINHALLI,15.43003605,75.31936155,FALSE
LKX,LAKSHMIPUR,23.502512,88.302374,FALSE
MYGL,MIYAGAM KARJAN JUNCTION NG,22.050132,73.119763,TRUE
SWC,SHIVRAMPUR,25.219375,80.826783,FALSE
SPDM,SINGHPUR DUMRA,25.06578142,79.89649549,FALSE
DMLE,DUMURDAHA,23.040053,88.432662,FALSE
SRZ,SARDARGARH,29.364244,73.740791,FALSE
DL,DALADI,22.585067,71.069304,FALSE
BRGY,VADODARA D CABIN,22.344458,73.159087,FALSE
CSTM,MUMBAI CST,18.944481,72.836903,FALSE
KNHN,KANTHAN JN,21.225502,79.238908,TRUE
MLD,MALIHABAD,26.930598,80.715032,FALSE
G,GONDIA JN,21.462435,80.190842,TRUE
SYF,Semai,26.282698,77.516308,FALSE
SRTE,Soorothee,26.657818,77.702774,FALSE
DBEC,DEVBALODA CHARODA,21.21335,81.45049,FALSE
SRR,SHORANUR JN,10.758855,76.272196,TRUE
LATI,LATIA CABIN,22.027897,82.402106,FALSE
BPH,BELPAHAR,21.8272123,83.8490763,FALSE
SSI,Shirsai,18.314696,74.578044,FALSE
BSBP,BIR SHIBPUR,22.473359,88.053112,FALSE
MRGM,MAURIGRAM,22.58015403,88.2560779,FALSE
SPV,Sivapur,13.647065,75.939298,FALSE
SRF,Sagar Jambagaru,14.142728,75.154712,FALSE
SMPA,Shampura,25.222941,75.233108,FALSE
DXK,DHANA KHERLI,26.950169,77.535779,FALSE
RBS,RUPBAS,26.99038038,77.59096323,FALSE
FTS,FATEHPUR SIKRI,27.093989,77.670597,FALSE
PTLI,PATHAULI,27.15684319,77.92459376,FALSE
TNR,TANGUTURU,15.337535,80.033546,FALSE
OGL,ONGOLE,15.498064,80.057404,FALSE
RMW,ROSHAN MAU,26.479318,79.984729,FALSE
MTO,MAITHA,26.476492,80.025181,FALSE
MAO,MADGAON,15.267911,73.970724,FALSE
SXB,SAMBRE,15.891068,74.593121,FALSE
SNE,SHENOLI,17.200729,74.252881,FALSE
SW,SEHRAMAU,28.360763,80.296582,FALSE
NKB,NAGRAKOTA,26.885533,88.917581,FALSE
GRU,GAROPARA,26.65743767,89.4852617,FALSE
SMLG,Shimiliaguda,18.30364,82.957105,FALSE
THP,Taherpur,23.259379,88.543119,FALSE
VJM,VYASARPADI JEEVA,13.108338,80.256873,FALSE
PER,PERAMBUR,13.10702,80.244533,FALSE
ADH,ANDHERI,19.1174289,72.846853,FALSE
SYE,Sindewahi,20.2955,79.668805,FALSE
SSKL,Suskal,22.316377,73.806077,FALSE
SUP,Srungavarapukota,18.116239,83.132531,FALSE
CGL,CHENGALPATTU,12.692864,79.981519,FALSE
GOT,GOT,28.870965,78.823001,FALSE
TKHA,TAKHA,27.135743,78.767259,FALSE
DMP,Dharampur Himachal,30.900491,77.023914,FALSE
TVL,TADWAL,17.393191,75.975729,FALSE
UDZ,UDAIPUR CITY,24.566862,73.699632,FALSE
UMRA,UMRA,24.522588,73.771734,FALSE
TT,TITTE,10.844904,79.1834,FALSE
TGB,Tangarbasuli,23.374032,85.06380544,FALSE
KGMR,KANGRA MANDIR,32.09449,76.276521,FALSE
TOM,TONDAMANPATTI,10.786552,78.823761,FALSE
KTSH,KOTMI SONAN HLT,22.024158,82.360215,FALSE
TRB,TIRUVERUMBUR,10.787167,78.776419,FALSE
PPI,PIPARIYA,22.753941,78.354538,FALSE
MWA,MANDWA,21.517291,76.389861,FALSE
NPNR,NEPANAGAR,21.463933,76.397032,FALSE
UA,UPLETA,21.746916,70.282434,FALSE
SAV,SAVDA,21.111116,75.910659,FALSE
HSD,HOSDURGA ROAD,13.86327375,76.13323312,FALSE
TKU,Tanakallu,13.922427,78.201224,FALSE
SKM,SINGARAYAKONDA,15.253118,80.027126,FALSE
AAP,AMBIAPUR,26.515364,79.826878,FALSE
TPT,TIRUPATTUR JN,12.497951,78.561419,TRUE
VLD,Vayalpad,13.634506,78.624967,FALSE
CAM,CHHOTA AMBANA,23.76275318,86.57461305,FALSE
PKL,PAPINAYAKNAHALI,15.236109,76.490876,FALSE
LTI,LATTERI,12.966994,79.065255,FALSE
TPQ,Topokal,19.00708,81.878645,FALSE
KVN,KAVANUR,12.948577,78.969273,FALSE
CLE,CHINTALPALLI,17.914856,79.701487,FALSE
GYM,GUDIYATTAM,12.937471,78.916157,FALSE
JJK,JHINJHAK,26.554994,79.734225,FALSE
VLT,VALATHOOR,12.889517,78.839324,FALSE
UHP,UDHAMPUR,32.92664,75.154881,FALSE
MPI,MELPATTI,12.859507,78.797049,FALSE
AB,AMBUR,12.782934,78.721266,FALSE
VGM,VINNAMANGALAM,12.728899,78.678716,FALSE
VN,VANIYAMBADI,12.678487,78.621651,FALSE
TAZ,TARGAON,17.514242,74.155817,FALSE
TLR,Tulsipur,27.53176993,82.41140968,FALSE
SAN,SANDILA,27.059455,80.517354,FALSE
TLE,Talgaria,23.681626,86.335511,FALSE
RBD,RAHIMABAD,26.99934325,80.6006388,FALSE
KFD,KARANJADI,17.998115,73.404252,FALSE
MEH,MELALATHUR,12.917803,78.875384,FALSE
TII,Tingrai,27.464468,95.535143,FALSE
UM,UMARDASHI,24.10032097,72.42056256,FALSE
VJ,VIRINCHIPURAM,12.961297,79.024717,FALSE
GIMB,GANDHIDHAM BG,23.069086,70.147754,FALSE
MAS,CHENNAI CENTRAL,13.0847613,80.2748563,FALSE
PEW,PERAMBUR LOCOMOTIVE WORKS,13.107826,80.225105,FALSE
SPAM,SENJI PANAMBAKKAM,13.093945,79.83276,FALSE
THBN,THANA BHAWAN,29.59266321,77.41043377,FALSE
TEP,Tempa,20.678242,79.605223,FALSE
MUQ,MARUDUR,10.914737,78.450293,FALSE
VMD,Vadlamannadu,16.300176,81.098875,FALSE
UNDI,UNDI,16.58037548,81.46418718,FALSE
EKH,EKSARI HALT,25.134973,85.889325,FALSE
TLS,Bettahalsoor,13.166876,77.606186,FALSE
TPY,Tadakalpudi,17.530163,80.532205,FALSE
UDGR,Udgir,18.39060183,77.10994304,FALSE
KZT,KULITTHURAI,8.302348,77.218817,FALSE
PTM,PADALAM,12.590197,79.950844,FALSE
OV,OTIVAKKAM,12.623128,79.975653,FALSE
TRX,TIRUMANI,12.670639,79.988514,FALSE
UKH,UKHALI,18.912675,76.605814,FALSE
VAA,Bhaga Junction,23.723331,86.405555,TRUE
SAE,SIMARIA,25.410723,86.013734,FALSE
KZJT,KAZIPET TOWN,17.983151,79.517705,FALSE
KZJE,KAZIPET E CABIN,17.975697,79.561183,FALSE
VLR,VELLORE CANT,12.910718,79.127493,FALSE
UGP,UGARPUR,27.351481,79.511652,FALSE
VAN,Vadhvana,22.152185,73.487264,FALSE
VDL,VITHISVARANKOL,11.195825,79.703785,FALSE
AO,AONLA,28.296051,79.16915,FALSE
DBR,DABHAURA,25.11793,81.303125,FALSE
NU,NARSINGHPUR,22.943112,79.214385,FALSE
GAR,GADARWARA,22.899459,78.791734,FALSE
JUH,JUJHARPUR,22.604977,77.75641,FALSE
KMNN,KHAMANON,30.775754,76.488695,FALSE
AMLO,AMLO,23.768893,85.980234,FALSE
AMSA,AMMASANDRA,13.264571,76.7114857,FALSE
GRJA,GORINJA,22.17599113,69.04119418,FALSE
GTW,GATORA,22.053427,82.22767,FALSE
VEI,VELLIYANI,10.841,78.114795,FALSE
DLQ,DALELNAGAR,27.118537,80.419624,FALSE
VID,VILAVADE,16.785593,73.619321,FALSE
KT,KUMTA,14.436871,74.420652,FALSE
PHD,PHAPHUND,26.63211832,79.55425521,FALSE
KNS,KANCHAUSI,26.59792371,79.63542606,FALSE
VTE,Venkatagiri Kote Halt,13.32831,77.73159,FALSE
AGI,AMGURI,26.812601,94.524011,FALSE
APB,ANUPPAMBATTU,13.304293,80.230769,FALSE
PON,PONNERI,13.332319,80.198799,FALSE
KVP,KAVARAIPPETTAI,13.36347,80.146879,FALSE
GPD,GUMMIDIPUNDI,13.409631,80.123431,FALSE
ELR,ELAVUR,13.458351,80.116178,FALSE
AKM,ARAMBAKKAM,13.532686,80.074371,FALSE
TADA,TADA,13.587948,80.035435,FALSE
AP,ASHOKAPURAM,12.273762,76.635315,FALSE
AKAT,AKKAMPET,13.64910607,80.01886341,FALSE
SPE,SULLURUPETA,13.696463,80.018161,FALSE
PEL,POLIREDDIPALEM,13.7594908,79.98002648,FALSE
ALY,ALLAHABAD CITY,25.44241,81.829736,FALSE
DVR,DORAVARI CHATRAM,13.814297,79.951308,FALSE
VRB,VISHRAMBAG,16.85057,74.602231,FALSE
NYP,NAYADUPETA,13.908321,79.900898,FALSE
UWNR,Udwant Nagar Halt,25.496532,84.611313,FALSE
PYA,PEDAPARIYA,14.021481,79.875372,FALSE
ODUR,ODUR,14.072185,79.855368,FALSE
GDR,GUDUR JN,14.148227,79.845121,TRUE
MBL,MANUBOLU,14.226551,79.87707,FALSE
KMLP,KOMMARAPUDI,14.257777,79.893501,FALSE
DIG,DUGGIRALA,16.327559,80.62357,FALSE
URR,Umred,20.850672,79.330741,FALSE
TYM,Tirumayam,10.246016,78.759423,FALSE
UCR,Unchahar Junction,25.902315,81.300143,TRUE
GBHA,GAROBIGHA HALT,24.826792,85.467153,FALSE
AMX,Amlakhurd,21.510235,76.650685,FALSE
TVNL,TIRVNLNLUR ROAD,11.798583,79.380205,FALSE
KDMD,KANDAMBAKKAM,11.811502,79.386975,FALSE
VM,VILLUPURAM JN,11.942971,79.500101,TRUE
MYP,MUNDILYAMPAKKAM,11.99568049,79.51168651,FALSE
VVN,VIKRAVANDI,12.037928,79.538038,FALSE
PEI,PERANI,12.104212,79.552577,FALSE
NMO,NEDI MOLLYANUR,12.128075,79.56707,FALSE
MTL,MAILAM,12.160501,79.6022,FALSE
TMV,TINDIVANAM,12.229411,79.651335,FALSE
PCLM,PANCHALAM,12.275612,79.691931,FALSE
OLA,OLAKUR,12.306463,79.721919,FALSE
KSGL,KARASANGAL,12.333838,79.749958,FALSE
TZD,TOZHUPPEDU,12.367081,79.783575,FALSE
ACK,ACHARAPAKKAM,12.406776,79.821722,FALSE
MLMR,MELMARUVATTUR,12.429554,79.833801,FALSE
VPH,Vachaspati Nagar,26.400204,86.325158,FALSE
PQM,PAKKAM,12.465125,79.850569,FALSE
VTL,Vadtal Swaminarayan,22.591636,72.876748,FALSE
MMK,MADURANTAKAM,12.50442,79.893087,FALSE
GMN,GOREGAON,19.164447,72.849389,FALSE
WDA,WADRENGDISA,25.263973,93.177527,FALSE
BAF,Bap,27.28818218,72.32740792,FALSE
AHH,AHMADGARH,30.683642,75.829518,FALSE
AGE,Angai,26.606593,77.46692,FALSE
AHI,ASHTI,17.84473678,75.40306979,FALSE
ALP,ALAPAKAM,11.61780334,79.72722737,FALSE
BANL,BHATANGLI,18.446007,76.678145,FALSE
AMW,AMAN VADI,20.300507,77.065281,FALSE
AYM,ADIYAKKAMANGALAM,10.756748,79.68058,FALSE
ASV,ASARVA JN,23.043981,72.612937,TRUE
AMT,AMMAPET,10.779506,79.315738,FALSE
ATT,ATARI,31.594934,74.607241,FALSE
JJA,JAJAN PATTI,27.354894,77.573854,FALSE
ARS,ARASUR,11.270467,79.724704,FALSE
KNDP,KHANDIP,26.641031,76.911821,FALSE
YDM,Yedamangala,12.714668,75.443085,FALSE
NNW,NARAYANPUR TATWAR,26.344259,76.635578,FALSE
BA,BANDRA,19.05445443,72.84045439,FALSE
AEJ,ARNEJ,22.582088,72.268322,FALSE
NPKM,NANDIYAMPAKKAM,13.268081,80.2758,FALSE
DDCE,DUNDI,23.557854,80.216657,FALSE
GRO,GURRA,22.632067,77.86729,FALSE
KVZ,KAVALI,14.915993,79.988271,FALSE
TTU,TETTU,15.042824,80.005821,FALSE
UPD,ULAVAPADU,15.167112,80.013364,FALSE
KTZ,KHUTWANSA,22.545189,77.602425,FALSE
KKN,KHIRKIYA,22.166444,76.859447,FALSE
BALI,Bhaili,22.26624501,73.13197684,FALSE
ATQ,Arantangi,10.16446906,78.99684814,FALSE
AGAE,AGRADWIP,23.58096,88.226117,FALSE
DSNR,DASHNAGAR,22.59863362,88.30780299,FALSE
TPKR,TIKIAPARA,22.599036,88.324322,FALSE
AMLP,Amalpur,22.161144,73.508313,FALSE
AUS,Anupshahr,28.94795111,75.2112298,FALSE
ASLU,Aslu,28.368988,75.074842,FALSE
GHSR,GHASARA HALT,26.72284,79.360808,FALSE
ULD,ACHALDA,26.701949,79.404392,FALSE
AEL,Ateli,28.100118,76.253105,FALSE
WTR,WATHAR,17.89054,74.135767,FALSE
WLH,VALHA,18.18363474,74.16055393,FALSE
BAAR,Bandar P.H.,22.052122,88.086816,FALSE
AE,Amreli,21.607831,71.228012,FALSE
MST,MASIT,27.269929,80.257914,FALSE
BGH,BAGHAULI,27.228081,80.296314,FALSE
TPND,TALOJA PANCHAND,19.078901,73.087316,FALSE
ADVI,ADAVALI,16.921753,73.592514,FALSE
AGL,AMARGOL,15.41179212,75.09820837,FALSE
AS,ARJANSAR,28.933796,73.871969,FALSE
BAKT,Barhara Kothi,25.776942,87.096319,FALSE
CM,Campierganj,27.05777,83.267384,FALSE
DB,Dabhoi Junction,22.137755,73.415466,TRUE
ULU,ULUNDURPET,11.702177,79.317787,FALSE
AGZ,AMAGURA,19.068103,82.147342,FALSE
AGB,AMBAGAON,19.062527,82.239507,FALSE
MYKR,MATYAKHERI HALT,24.309449,74.951915,FALSE
BBLK,B L DASPURI,27.31699936,79.36351861,FALSE
ARV,ARNI ROAD,12.630801,79.209033,FALSE
BARI,Bari,26.65005846,77.61817468,FALSE
BAT,Batala Junction,31.8214816,75.1944316,TRUE
BBV,BABHULGOAN,17.778326,75.383427,FALSE
ASI,Arseni,27.243104,80.39386,FALSE
APE,ANDANAPPETTAI,10.758823,79.844096,FALSE
BEHR,BEOHARI,24.0002687,81.3797154,FALSE
ARNH,Arjunahalli,12.512857,76.391729,FALSE
BFG,Bagthar,26.79623183,77.52218903,FALSE
BBAR,BARA,24.001215,81.211862,FALSE
BDYP,Bidyadharpur,22.425122,88.452872,FALSE
ASAN,ASAN,29.40129,76.882594,FALSE
ATUL,ATUL,20.54459335,72.92713359,FALSE
AONI,Amoni,26.448121,92.919609,FALSE
HRI,HARDOI,27.399414,80.147877,FALSE
BBE,BAGHI BARDIHA,24.953077,85.623332,FALSE
BFX,BAGHI GHAUSPUR,25.051952,85.684033,FALSE
BDV,BADANAVALU,12.0755655,76.74904447,FALSE
PGU,PADUGUPADU,14.496976,79.989954,FALSE
KJJ,KODAVALURU,14.564331,79.994908,FALSE
TMC,TALAMANCHI,14.607124,79.998171,FALSE
AXR,ALLURU ROAD,14.710541,79.989036,FALSE
BTTR,BITRAGUNTA,14.7685848,79.983146,FALSE
SVPM,S VENKTESWRPALM,14.806671,79.982262,FALSE
KPO,KARANPURA,27.12304679,76.77836492,FALSE
BUDA,BHUDA,27.12898602,76.81453797,FALSE
MURD,MANDAWAR MAHUA RD,27.15609766,76.85082269,FALSE
ANDN,Anand Nagar,27.103714,83.270698,FALSE
GOS,GHOSRANA,27.179904,76.90338,FALSE
DTF,DANTLA,27.19715121,76.96107011,FALSE
KL,KHERLI,27.20025677,77.03642447,FALSE
ARK,Arakku,18.333991,82.86256,FALSE
TBL,TARCHERRA BRLRM,27.205008,77.104134,FALSE
NBI,NADBAI,27.21367431,77.20808751,FALSE
PPEA,PAPRERA,27.226004,77.308829,FALSE
HK,HELAK,27.234442,77.378757,FALSE
BTE,BHARATPUR JN,27.237107,77.488613,TRUE
ATR,Attar,21.998734,76.204918,FALSE
NHB,NOH BACHHAMDI,27.223369,77.546395,FALSE
IK,IKRAN,27.211065,77.608741,FALSE
CIK,CHIKSANA,27.199896,77.663925,FALSE
ANY,Arumuganeri,8.579144,78.091842,FALSE
BAKA,Banka,24.86590103,86.91169349,FALSE
AH,ACHHNERA JN,27.18176023,77.7578389,TRUE
TDL,TUNDLA JN,27.207747,78.233285,TRUE
BAW,CHIK BANAVAR,13.073539,77.506341,FALSE
PVN,PAVUNUR,11.600544,79.315806,FALSE
BFN,Bugana,29.2588222,75.82781506,FALSE
ANF,Anandapuram,14.073324,75.209164,FALSE
BBN,Barbil,22.104577,85.369058,FALSE
HNG,HIRANGAON,27.175703,78.314619,FALSE
FZD,FIROZABAD,27.147415,78.386691,FALSE
MNR,MAKKHANPUR,27.119485,78.4715,FALSE
SKB,SHIKOHABAD JN,27.085686,78.574955,TRUE
KAA,KAURARA,27.029,78.664813,FALSE
BDN,BHADAN,26.9793918,78.7374946,FALSE
BBL,BALRAI,26.92050239,78.82371022,FALSE
JGR,JASWANTNAGAR,26.872978,78.893731,FALSE
SB,SARAI BHOPAT,26.837847,78.944709,FALSE
ETW,ETAWAH,26.78597,79.021502,FALSE
EKL,EKDIL,26.76628,79.116455,FALSE
BNT,BHARTHANA,26.7502248,79.2163612,FALSE
DBM,DABOLIM,15.389334,73.849937,FALSE
AUWA,AUWA,25.665207,73.564613,FALSE
JP,JAIPUR,26.920203,75.786923,FALSE
BEB,Beldanga,23.9320594,88.2429681,FALSE
BHLI,BOHALI,17.58877327,75.27417044,FALSE
BASN,BHAINSWAN,29.094392,76.680769,FALSE
BHNA,Bhayna,23.31226134,88.64165886,FALSE
BHME,BHANDARIDAH,23.75667293,86.05509864,FALSE
BCU,BHUCHCHU,30.209882,75.0951862,FALSE
BHL,BHILWARA,25.3435508,74.6307734,FALSE
KVA,KAVAS,25.867466,71.538716,FALSE
BDW,BANDANWARA,26.1253008,74.6913786,FALSE
BJV,Bijauria,28.574785,79.655274,FALSE
BHJ,Barhaj Bazar,26.283912,83.731497,FALSE
DRD,DAHANU ROAD,19.991217,72.743368,FALSE
BJRA,BHAJERA,27.10077459,76.65687449,FALSE
BDXT,BASAI DHANKOT,28.464735,76.983187,FALSE
BCHN,Bochasan Junction,22.402073,72.847673,TRUE
BHT,Bhattu,29.387323,75.34013,FALSE
SHR,SIHORA ROAD,23.467136,80.110265,FALSE
SGBJ,SURGAON BANJARI,21.946109,76.544215,FALSE
BADR,Bhader,21.36507,70.928979,FALSE
TLA,TITVALA,19.296504,73.202714,FALSE
BJUD,BAJUD,21.736131,71.827925,FALSE
KON,KUDALNAGAR,9.944876,78.108666,FALSE
BDSW,Budhsinghwala,29.83170841,74.22266068,FALSE
BER,BEAWAR,26.1089078,74.3149711,FALSE
BGDA,Bogada,20.27871423,86.58817179,FALSE
AWG,Awa Garh,27.464247,78.4734,FALSE
SBK,SHAHBAZ KULI,25.632101,83.674653,FALSE
ENR,ENNORE,13.21819572,80.32212448,FALSE
NLS,NELLORE SOUTH,14.444475,79.983464,FALSE
AVL,AMRITVEL,21.077372,71.679671,FALSE
NLR,NELLORE,14.460592,79.989383,FALSE
BGA,BAGALIA,23.44693617,86.51904643,FALSE
BERO,BERO,23.548271,86.726609,FALSE
DVBH,MAKUDAN VIRAPANDI BLOCK HUT,11.580796,78.037941,FALSE
AVT,Avati,13.299092,77.726679,FALSE
BIV,Bamhani Banjur,22.438916,80.324566,FALSE
BGB,Budge Budge,22.49310248,88.19469228,FALSE
UMNR,UMESHNAGAR,25.461085,86.431195,FALSE
BDBP,BASUDEBPUR,24.63552704,87.9825355,FALSE
MOL,MULI ROAD,22.676562,71.43486,FALSE
AZA,AZARA,26.09934,91.613927,FALSE
BAHI,Balenahalli,14.250321,76.566376,FALSE
BDHP,BHUDPUR,29.21809388,77.2911683,FALSE
SHW,SAMHON,26.734186,79.320694,FALSE
PATA,PATA,26.6666191,79.47941834,FALSE
PJY,PARA JANI HALT,26.596933,79.634896,FALSE
RURA,RURA,26.485377,79.908216,FALSE
BPU,BHAUPUR,26.46811536,80.12429014,FALSE
CNB,KANPUR CENTRAL,26.45424,80.350966,FALSE
CHK,CHAKERI,26.38116,80.406546,FALSE
SSL,SIRSAUL,26.297301,80.462852,FALSE
RAMA,RAMVA,25.89115342,80.85329936,FALSE
BKF,Bhikhna Thori,27.333596,84.61057,FALSE
BGJT,Bagha Jatin,22.482615,88.387421,FALSE
BGPL,Baghuapal,21.042219,86.013166,FALSE
BEHS,Bihar Sharif,25.206116,85.5390747,FALSE
BHRB,Bhairabi,24.19545969,92.54106045,FALSE
BDWL,BIRADHWAL,29.17411682,73.89651623,FALSE
BANE,BASNI,26.222963,73.010639,FALSE
BHZ,BIHARA,24.9628178,92.689054,FALSE
BHI,BAHERI,28.777391,79.5003221,FALSE
BHB,BADLA GHAT,25.5537629,86.5871439,FALSE
BJNR,BIJAINAGAR,25.931003,74.6530589,FALSE
BGHI,BAGAHAI ROAD,24.555903,81.018663,FALSE
BDDR,BADODAR,21.361073,70.295846,FALSE
BIJ,Birnagar,23.2358754,88.551252,FALSE
BJO,BIJNOR,29.3856298,78.1468047,FALSE
BHLA,BEHULA,23.1819674,88.4287921,FALSE
BLQR,BILASPUR ROAD,28.865601,79.254263,FALSE
BHLE,Barahat,24.92060047,87.0100838,FALSE
BGAE,BALAGARH,23.1215453,88.4525522,FALSE
BJRI,BIJURI,23.2503386,82.1189461,FALSE
BHTA,BHATIYA,22.0881542,69.2803623,FALSE
BKRO,BOKARO THERMAL,23.7851503,85.8755782,FALSE
CHCR,CHACHER,21.241422,79.354918,FALSE
DNL,DHANOLI,21.32210987,80.42759081,FALSE
LLP,Lalitgram,26.35666473,87.01226592,FALSE
NI,NAYDONGRI,20.34843095,74.83663308,FALSE
HJN,HOWRAH JN. CABIN,22.583533,88.342811,TRUE
PKE,PIMPAR KHED,20.30745533,74.75599973,FALSE
PJN,PANJHAN,20.275504,74.606561,FALSE
HSL,HISVAHAL,20.283239,74.57099,FALSE
PNV,PANEVADI,20.26527,74.494903,FALSE
MMR,MANMAD JN,20.249887,74.438305,TRUE
TGR3,BLOCK AND CATCH SIDING CABINE NO.3,19.674468,73.485951,FALSE
BDGP,BADANAGUPPE,11.990316,76.861228,FALSE
KYN,KALYAN JN,19.234716,73.12974,TRUE
PMR,PITAMBARPUR,28.200105,79.538072,FALSE
BIQ,BANSI PAHARPUR,26.93277,77.457241,FALSE
CTTP,CHITRAPUR HALT,14.036148,74.536566,FALSE
BFD,BORHAT,27.164263,95.277512,FALSE
BGM,BELGAUM,15.8492433,74.5095639,FALSE
BGU,BAIRGANIA,26.738282,85.273334,FALSE
BGRM,Biggabas Ramsara,28.04769242,74.20154743,FALSE
BEML,BEML Nagar,12.9786413,78.24197815,FALSE
BKT,BAKSHI KA TALAB,26.983452,80.922331,FALSE
BFPA,Bhopatpur,28.3754641,79.8051375,FALSE
BJP,BIJAPUR,16.8310603,75.7400012,FALSE
BILA,Bheslana,27.065209,75.304187,FALSE
VJA,VEJANDLA,16.237226,80.519729,FALSE
SJL,SANGAM JAGARLAMUDI,16.246589,80.570521,FALSE
BDE,Bodeli,22.2701906,73.7165798,FALSE
GCAB,GCAB,21.204608,81.431558,FALSE
BIA,BHILAI,21.2025983,81.4217238,FALSE
BPHB,BHILAI POWER HOUSE,21.208119,81.375901,FALSE
BQR,BHILAI NAGAR,21.2013382,81.3343451,FALSE
BADK,BARKA,29.07256469,77.27330216,FALSE
BDKT,Badakhandita,20.3654487,86.08383554,FALSE
BELA,Bela,24.97843,84.981353,FALSE
VDE,VEDAYAPALEM,14.404478,79.957106,FALSE
TRL,TIRUVALLUR,13.115764,79.913105,FALSE
BIDR,Bidar,17.9116836,77.5137793,FALSE
WCN,WIMCO NAGAR,13.180491,80.305807,FALSE
KAVM,KATHIVAKKAM,13.204344,80.316742,FALSE
VKT,VENKATACHALAM,14.327256,79.92732,FALSE
BHM,Bahram,31.197575,75.894193,FALSE
BGPA,Bageshapura,13.14380344,76.22935519,FALSE
BHRJ,Becharji,23.516602,72.029413,FALSE
SDM,SURAREDDIPALEM,15.407571,80.045682,FALSE
PRH,POWERPET,16.713189,81.106602,FALSE
VGT,UNGUTURU,16.824498,81.42356,FALSE
BMGM,BRAHMANAGUDEM,16.93025821,81.67527695,FALSE
KYM,KADIYAN,16.914338,81.832674,FALSE
BBPM,BALABHADRAPURAM,16.96580143,82.00037566,FALSE
NASP,NARASINGAPALLI,17.606751,82.891038,FALSE
GPT,GOPALAPATNAM,17.748818,83.214877,FALSE
VKD,BAKHRABAD,22.118541,87.36345,FALSE
NYA,NARAYANGARH,22.174233,87.380456,FALSE
BPE,BENAPUR,22.27135231,87.37624084,FALSE
HIJ,HIJILLI,22.319921,87.320169,FALSE
BKL,BONA KALU,17.031591,80.261499,FALSE
BLO,BHULON,24.635909,76.968812,FALSE
BMHR,BAMANHERI,29.514762,77.70639,FALSE
BME,BARMER,25.7445219,71.397067,FALSE
BLC,BOLDA,19.5520321,77.2735908,FALSE
BKWA,BAKAYANWALA,30.143292,73.985818,FALSE
BLDI,BHILDI,24.194251,72.008187,FALSE
BJ,BAHJOI,28.4014996,78.6315064,FALSE
ADIJ,AHMEDABAD JN,23.025715,72.601716,TRUE
BMSR,Bhimasar,23.53366094,70.88691945,FALSE
BLWR,BILESHWAR,22.382129,70.830427,FALSE
BKDE,BUDHAKHERA,29.378719,76.557193,FALSE
HCAB,BMY H CABIN,21.220991,81.464891,FALSE
KOK,KORUKKUPET JN,13.1204898,80.27837727,TRUE
BHY,BHAYAVADAR,21.84783718,70.23614486,FALSE
BL,VALSAD,20.6085595,72.9335291,FALSE
TNP,TONDIARPETTAI,13.12624,80.28092114,FALSE
BNSP,BANSAPAHAR,25.055505,81.050022,FALSE
ULB,ULUBARIA,22.472428,88.093209,FALSE
BLP,Balrampur,27.41582061,82.1606699,FALSE
VOC,V.O.C. NAGAR,13.14030163,80.28745678,FALSE
CTRE,CHITTERI,13.068172,79.597909,FALSE
TUG,THALANGAI,13.003678,79.426128,FALSE
APH,ANUPGARH,29.1968977,73.2045643,FALSE
WJR,WALAJAH ROAD JN,12.970676,79.360511,TRUE
BJMR,BAIJNATH MANDIR,32.05262566,76.65152894,FALSE
MCN,MUKUNDARAYAPURM,12.977678,79.289067,FALSE
TVT,TIRUVOTTIYUR,13.160025,80.296454,FALSE
BMR,BIKRAMPUR,23.082226,79.586316,FALSE
BKH,BANKHEDI,22.7748819,78.5379969,FALSE
AKRA,Akra,22.514668,88.249021,FALSE
BPF,BANAPURA,22.47035755,77.48073161,FALSE
BLKR,BALLEKERE HALT,13.502322,76.023514,FALSE
SUCH,SUCHINDRAM,8.149479,77.466792,FALSE
BJWS,Bojawas,28.312786,76.252868,FALSE
BLGA,Belagula,12.38569868,76.58870326,FALSE
BLLI,BALLI,15.1517258,74.0209756,FALSE
BJMD,Bara Jamda,22.1665327,85.412392,FALSE
BMP,Bramhapuri,20.603943,79.867537,FALSE
BIC,Bichia,28.1830705,81.2720808,FALSE
BILK,Bilkha,21.4430784,70.6004021,FALSE
BMPR,Badampahar,22.2640234,86.1808182,FALSE
BMGR,Bamangram,25.62213987,88.19128322,FALSE
BPN,Banpur,23.45186861,88.76185515,FALSE
BMLL,Bamla,28.832464,76.244079,FALSE
BMW,Bamhni,20.922361,79.364152,FALSE
KOTR,KORATTUR,13.113345,80.184062,FALSE
PCW,PERAMBUR CARRIAGE WORKS,13.10724,80.238659,FALSE
VLK,VILLIVAKKAM,13.110062,80.209621,FALSE
BNHL,Bellenahalli,14.243859,76.554391,FALSE
PVM,PATTARAVKKAM,13.114872,80.166656,FALSE
ABU,AMBATTUR,13.11430598,80.15252491,FALSE
ANNR,ANNANUR,13.116018,80.126743,FALSE
KMSI,Kumsi,14.051954,75.402042,FALSE
AVD,AVADI,13.118247,80.100518,FALSE
HC,HINDU COLLEGE,13.118538,80.074903,FALSE
PAB,PATTABIRAM,13.11926,80.065424,FALSE
NEC,NEMILICHERRY HALT,13.121643,80.045378,FALSE
SVR,SEVVAPET ROAD,13.124997,79.966688,FALSE
PTLR,PUTLUR HALT,13.122922,79.9371,FALSE
EGT,EGATTUR HALT,13.106198,79.88406,FALSE
BJE,Bhojudih Junction,23.642175,86.4469993,TRUE
MAF,MANUR,13.096025,79.801508,FALSE
MSU,MOSUR,13.08573489,79.71884098,FALSE
MLPM,MELPAKKAM,13.080671,79.659245,FALSE
MRLM,MARUDALAM,12.99726,79.399298,FALSE
BPZ,BAZPUR,29.1578998,79.1463827,FALSE
BRY,BAREILLY,28.3372843,79.4109744,FALSE
BQZ,BALLALPUR,24.747459,87.912243,FALSE
BNN,BARNALA,30.3703968,75.5492466,FALSE
BNJL,BINJHOL HALT,29.344605,76.923781,FALSE
KAV,KALAMNA,21.168195,79.140955,FALSE
BNH,BHIMNATH,22.245963,71.92503,FALSE
BNVD,BHANVAD,21.9330444,69.7988578,FALSE
BRGM,Baraigram Junction,24.684059,92.344106,TRUE
BSPR,BISHRAMPUR,23.179178,82.98289,FALSE
BRH,BAIKUNTHPUR RD,23.317286,82.5298836,FALSE
SAL,SALWA,21.236542,79.292976,FALSE
BTKL,Bhatkal,13.987012,74.56730199,FALSE
TAR,THARSA,21.256602,79.41467,FALSE
TMR,TUMSAR ROAD,21.342437,79.751419,FALSE
GJ,GANGAJHARI,21.443153,80.058885,FALSE
BNSR,BHAGWANSAR,29.343806,73.859791,FALSE
PJB,PANIAJOB,21.183732,80.693768,FALSE
THL,TIRUVALAM,12.974779,79.245745,FALSE
BQH,Bhanohad Punjab,30.85173825,75.70970576,FALSE
SVUR,SEVUR,12.971785,79.189821,FALSE
KPD,KATPADI JN,12.972734,79.135341,TRUE
BPRA,BARIPURA,25.340728,79.943488,FALSE
PCKM,PACHACHAKUPAM,12.822656,78.757365,FALSE
DGG,DONGARGARH,21.185492,80.759857,FALSE
BPO,Baripada,21.9227408,86.73709,FALSE
BO,Borsad,22.401548,72.909158,FALSE
JTR,JATKANHAR,21.1798,80.821965,FALSE
BS,Banisar,28.06756342,73.89548792,FALSE
ATH,ANTAH,25.1611771,76.3072684,FALSE
BON,BHONRA,25.17106114,76.19767366,FALSE
BOV,Bhatgaon,21.171626,81.712724,FALSE
MUA,MUSRA,21.152966,80.879372,FALSE
BNCE,BANGALORE EAST,13.00148,77.6184701,FALSE
BRP,Baruipur Junction,22.366658,88.431647,TRUE
AAH,ITEHAR,26.562635,78.683783,FALSE
RYT,RAYAT PURA,26.456937,78.381881,FALSE
BBY,BHADROLI,26.30595,78.181356,FALSE
BAKL,BAKAL,21.123637,80.940946,FALSE
BTKB,Bathna Krittibas Halt,23.2363136,88.48266943,FALSE
GD,GONDA JN,27.154613,81.978152,TRUE
AKZ,Akashi,23.3851244,84.88778586,FALSE
BR,BANDH BARETA,26.910367,77.364108,FALSE
DAN,DHANETA,28.512294,79.264748,FALSE
CKYD,CHAKRA ROAD,26.001213,83.672178,FALSE
MUP,MURHIPAR,21.183141,81.148154,FALSE
BOKE,BHOKE,17.0490546,73.3810615,FALSE
RSM,RASMARA,21.204118,81.2164,FALSE
PHQ,PARDHANDE,20.72929519,75.37694143,FALSE
PC,PACHORA JN,20.668385,75.34831,TRUE
BSKH,Basukinath,24.388941,87.045099,FALSE
BSKN,Bhesana Manknaj,23.49875695,72.33120864,FALSE
GAA,GALAN,20.60959981,75.27700034,FALSE
NGD,NAGARDEVLA,20.60300165,75.19810611,FALSE
AV,ASVALI,19.817371,73.751085,FALSE
PI,PADLI,19.783928,73.665733,FALSE
GO,GHOTI,19.722911,73.635944,FALSE
IGP,IGATPURI,19.694053,73.562379,FALSE
SHAD,SHAHAD,19.244702,73.158611,FALSE
ASE,ASAUDAH,28.73653776,76.85877285,FALSE
ABO,ASTHAL BOHAR,28.857765,76.629155,FALSE
KZH,KILA ZAFARGARH,29.080581,76.4289532,FALSE
BNQL,BHANKALA HALT,29.84559084,77.47434932,FALSE
BQA,BANKURA,23.2243871,87.0746875,FALSE
BRLI,Barauli,26.552056,77.424988,FALSE
BPRH,Balpur Halt,22.115136,82.694138,FALSE
BNKI,Banmankhi Junction,25.885092,87.193664,TRUE
AIP,ATTIPPATTU,13.26116317,80.28894591,FALSE
MJR,MINJUR,13.281979,80.260192,FALSE
BRJ,Brace Bridge,22.517861,88.301496,FALSE
BZGT,Bazurghat,24.607593,92.383418,FALSE
ALGP,Algapur,24.754753,92.595918,FALSE
TAN,TARANA ROAD,23.264582,76.067017,FALSE
DWO,DOIWALA,30.175451,78.12218,FALSE
BRSQ,BRAR SQUARE,28.613526,77.14079,FALSE
KAT,KHATAULI,29.273712,77.736988,FALSE
BUB,Bissau,28.2401014,75.0612084,FALSE
PQY,PABLI KHAS,29.05601,77.698335,FALSE
GUH,GULDHAR,28.703752,77.455792,FALSE
BRRD,BORDI ROAD,20.122424,72.766138,FALSE
BRU,BHAIROGANJ,27.15141815,84.24239742,FALSE
BTH,BETTIAH,26.8058847,84.5229561,FALSE
MKU,MALKAPUR,20.891974,76.202946,FALSE
BSDL,BHARSENDI,24.036488,82.06039,FALSE
BSC,Bulandshahr,28.3919187,77.8482415,FALSE
BTPG,Betheria Ghola,22.350122,88.573321,FALSE
BTPD,Bethampurdi,17.543986,80.573657,FALSE
BTG,BASHARATGANJ,28.288009,79.2851956,FALSE
BTIC,BHATINDA CANTT,30.19088,74.954044,FALSE
ALL,ALAL,30.377725,75.72074952,FALSE
WADO,WADODA,20.88854467,76.27984696,FALSE
KJL,KHUMGAON BURTI,20.866943,76.401107,FALSE
NN,NANDURA,20.838889,76.460158,FALSE
BTD,BOTAD JN,22.1828706,71.6655966,TRUE
BU,BASWA,27.149686,76.575644,FALSE
AK,AKOLA JN,20.723084,77.005497,TRUE
DKS,DAREKASA,21.271299,80.580751,FALSE
BUGL,Buglanwali,29.79175067,74.23897337,FALSE
BSX,BASAR,18.86512,77.938506,FALSE
BWZ,Baddowal,30.862117,75.742678,FALSE
BSQ,BARSI TAKLI,20.576054,77.060902,FALSE
PARH,PARAKHEDA,25.705583,77.642772,FALSE
BLNR,BIRLANAGAR,26.237555,78.1953108,FALSE
BUQ,Bargi,22.995933,79.875125,FALSE
SIKD,SIKRODA KWANRI,26.569564,77.962853,FALSE
BSJ,Bhupalsagar,24.84776209,74.21161319,FALSE
BRPK,Bisharpara Kodaliya,22.676284,88.434731,FALSE
TY,TULUKAPATI,9.467439,77.936903,FALSE
BYSA,Basulyasutahata,22.12030128,88.13056325,FALSE
BRG,BARGARH,25.16427042,81.45005848,FALSE
KSRA,KASARA,19.647159,73.472003,FALSE
OMB,OOMBERMALI,19.628026,73.422651,FALSE
MH,Marahra,25.100178,85.446664,FALSE
KE,KHARDI,19.579952,73.393442,FALSE
THS,THANSIT,19.549981,73.351813,FALSE
BSGR,Bhagsar,30.452385,74.401977,FALSE
ATG,ATGAON,19.5031813,73.32769124,FALSE
ASO,ASANGAON,19.439278,73.307859,FALSE
VSD,VASIND,19.406422,73.267689,FALSE
KDV,KHADAVLI,19.35621892,73.21871043,FALSE
ABY,AMBIVLI,19.267587,73.17171,FALSE
DIVA,DIVA,19.188394,73.041905,FALSE
SNRD,MUMBAI SANDHURST ROAD,18.962311,72.839733,FALSE
BXB,Banga,31.177139,75.999562,FALSE
TNA,THANE,19.185757,72.975417,FALSE
BVW,Bahminiwala,30.54894,74.193132,FALSE
MLND,MULUND,19.172355,72.956933,FALSE
KUF,KAURHA,27.462683,80.102675,FALSE
KAR,KARNA,27.32161,80.196235,FALSE
NHU,NAHUR,19.154646,72.946683,FALSE
BTQ,Betnoti,21.74134,86.8435187,FALSE
BSN,BANASANDRA,13.265332,76.659317,FALSE
MOI,MORI BERA,25.035575,73.136306,FALSE
BRLY,BIROLIYA,25.170546,73.192517,FALSE
RT,ROHAT,25.92147561,73.09531882,FALSE
BSRX,BAGEVADI RD,16.47986853,75.82814753,FALSE
AIPP,ATTIPPATTU PUDU NAGAR,13.249326,80.299606,FALSE
BZG,Bilga,31.058267,75.666841,FALSE
LMC,LAKHAMANCHI,22.57181241,71.14841382,FALSE
BDME,Baidyanathdham Deoghar,24.4892623,86.6920701,FALSE
BTW,BARSI TOWN,18.240993,75.718169,FALSE
BWW,Barwaha,22.2554459,76.0302621,FALSE
JWLS,JAWAN WALA SHEHAR,32.14165,76.003772,FALSE
KIM,KIM,21.399697,72.926702,FALSE
SER,SAMAYANALLUR,9.981546,78.035087,FALSE
CDD,Chandod,21.99195697,73.45218164,FALSE
DPH,DADHAPARA,22.028156,82.123182,FALSE
JRMG,JAIRAMNAGAR,22.034344,82.296511,FALSE
UGN,UGAON,20.122592,74.136829,FALSE
BXT,Bamanhat,26.07628446,89.62797753,FALSE
BXK,BANDARKHAL,25.069785,92.800717,FALSE
BWX,BAHMAN DIWANA,30.225526,74.849153,FALSE
BYHA,BARYA RAM,25.566931,82.226592,FALSE
CRK,CHARKHERA,22.367273,77.171177,FALSE
BUTA,BHADUTALA,22.485657,87.3208,FALSE
CDGR,CHANDRAKONA RD,22.739076,87.340588,FALSE
BZO,BARSOLA,29.394379,76.231711,FALSE
DG,DINDIGUL JN,10.35381,77.985472,TRUE
VO,VELLODU,10.317776,77.951415,FALSE
ABI,AMBATURAI,10.272226,77.924468,FALSE
KQN,KODAIKANAL ROAD,10.179613,77.909593,FALSE
VDP,VADIPPATTI,10.086114,77.945674,FALSE
CDQ,CHADOTAR,24.18394723,72.37251094,FALSE
BWL,BAWAL,28.070281,76.572402,FALSE
BVRT,BHIMAVARAM TOWN,16.547348,81.516853,FALSE
BQN,BAGRI NAGAR,25.895725,73.787801,FALSE
KYR,KARUPPATTI,10.044465,77.948393,FALSE
SDN,SHOLAVANDAN,10.02227,77.965082,FALSE
BUG,BAGAHA,27.130045,84.066991,FALSE
CAI,CHANPATIA,26.94163,84.530639,FALSE
CAA,CHAKIA,26.417182,85.04636,FALSE
BXM,BELRAYAN,28.379381,80.915268,FALSE
BVQ,BHILAVDI,17.008048,74.516781,FALSE
ANR,ANARA,23.481082,86.559763,FALSE
BWPL,Balwant Pura Chelasi,27.9104715,75.4432869,FALSE
CATD,Chataud,21.015051,81.73716,FALSE
CID,Chiraidongri,22.411418,80.287402,FALSE
KGFR,KATHGHAR RIGHT BANK,28.83210834,78.80822653,FALSE
KGFE,KATHGHAR EAST,28.832685,78.8095,FALSE
BHGJ,Bihariganj,25.732599,86.992655,FALSE
HTGR,HATHIGADH,21.6201,71.444628,FALSE
CHBN,Chandkhira Bagn,24.515852,92.287381,FALSE
MKY,MEKKUDI,10.87109,78.628737,FALSE
MIL,MILAK,28.612475,79.164117,FALSE
NRS,NAGARIA SADAT,28.550179,79.205555,FALSE
BXC,Barwala,29.367534,75.887031,FALSE
BLM,BALAMU JN,27.167363,80.352497,TRUE
UTA,UMAR TALI,27.086986,80.473465,FALSE
CBG,Charbhuja Road,25.352228,73.946241,FALSE
HNA,HONNAVAR,14.316931,74.433196,FALSE
SEN,SENAPURA,13.71768018,74.68401195,FALSE
CGX,Chargola,24.845884,92.416794,FALSE
TMP,TAMARAIPADI,10.40234176,78.04459174,FALSE
VDM,VADAMADURA,10.43633558,78.10215996,FALSE
AYR,AYYALUR,10.483391,78.157049,FALSE
KFC,KALPATTICHATRAM,10.51806567,78.23436756,FALSE
VPJ,VALYAMPATTI,10.54405502,78.3098144,FALSE
CII,CHETTIYAPATTI,10.57564455,78.36623184,FALSE
BYR,BHAYANDAR,19.311766,72.853039,FALSE
BHU,BHANDU MOTIDAU,23.709061,72.389339,FALSE
CG,Canning,22.313264,88.667458,FALSE
CGLA,Changotola,22.22994616,80.11878948,FALSE
CHKB,CHAKKI BANK,32.259653,75.636651,FALSE
JAR,Junair Halt,25.27360737,85.25069635,FALSE
CH,CHANDAUSI JN,28.458626,78.780268,TRUE
DGI,DUNGRI,20.687336,72.949119,FALSE
BIS,BISWA BRIDGE,20.88515715,76.33919345,FALSE
YAD,YEULKHED,20.724559,77.07497,FALSE
KKT,Kath Kuiyan,26.85680184,84.04787091,FALSE
BGN,BORGAON,20.7290593,77.1796502,FALSE
DDY,DUDWINDI,31.237553,75.258143,FALSE
KTP,KATEPURNA,20.723777,77.259381,FALSE
SUM,SUMMIT,20.2117506,74.34312998,FALSE
LS,LASALGAON,20.154848,74.225976,FALSE
DDN,DEHRADUN,30.3140377,78.0336011,FALSE
MZR,MURTAJAPUR,20.736468,77.354825,FALSE
CDSL,CHANDRESAL,25.212948,75.943986,FALSE
CDG,CHANDIGARH,30.7019773,76.82208,FALSE
MANA,MANA,20.761491,77.469063,FALSE
MNDA,MANDURA,20.78015,77.522584,FALSE
CPJ,KAPTANGANJ JN,26.926388,83.699907,TRUE
AWS,ASWANI HALT,27.15958,84.051843,FALSE
KUM,KURAM,20.808396,77.58733,FALSE
TKI,TAKLI,20.833253,77.65695,FALSE
KKJ,KAKORI,26.885454,80.79835,FALSE
LNWT,LUCKNOW WEST (ALH),26.829443,80.909614,FALSE
DES,DESARI,25.66835936,85.40876566,FALSE
NR,NIPHAD,20.096584,74.079481,FALSE
BD,BADNERA JN,20.8567925,77.7323197,TRUE
BKJ,BARKUR,13.4774588,74.7596804,FALSE
BFR,BEKAL FORT,12.385524,75.042786,FALSE
DMK,Dilmili,18.987443,81.737851,FALSE
DGHR,Deoghar,24.51178242,86.69712126,FALSE
ALUR,Alur Halt,12.98251226,75.99049337,FALSE
TMT,TIMTALA,20.812496,77.79476,FALSE
MLR,MALKHED,20.821793,77.862831,FALSE
CND,CHANDUR,20.8045192,77.9821558,FALSE
DIP,DIPORE,20.79317,78.040981,FALSE
DMN,DHAMANGAON,20.784674,78.138054,FALSE
TLN,TALNI,20.754248,78.230026,FALSE
PLO,PULGAON JN,20.726734,78.318111,TRUE
KAOT,KAOTHA,20.737041,78.376203,FALSE
DAE,DAHEGAON,20.729315,78.463093,FALSE
WR,WARDHA JN,20.732777,78.594157,TRUE
SEGM,SEVAGRAM,20.739076,78.619225,FALSE
VADR,WARUD,20.74716554,78.65067139,FALSE
TGP,TULJAPUR,20.800701,78.808237,FALSE
BOK,BORKHEDI,20.86017604,78.97444766,FALSE
BTBR,BUTI BORI,20.91847276,79.01362896,FALSE
CBX,CHAND BHAN,30.445148,74.880021,FALSE
GMG,GUMGAON,20.993596,79.030314,FALSE
DEV,DEVARAYI,15.44947863,74.57136413,FALSE
KRI,KHAPTI,21.049338,79.048839,FALSE
AJNI,AJNI,21.12685881,79.08251975,FALSE
KP,KAMPTEE,21.21172,79.197947,FALSE
CGA,CHENGEL,22.486845,88.13891,FALSE
DGBZ,Dongri Buzurg,21.573844,79.676645,FALSE
BVA,BAURIA JN,22.50359112,88.16352161,TRUE
NALR,NALPUR,22.529208,88.185699,FALSE
DEEG,Deeg,27.48655053,77.32451142,FALSE
ABB,ABADA,22.547877,88.199392,FALSE
SEL,SANKRALL,22.56130949,88.20907435,FALSE
ADL,ANDUL,22.575169,88.239643,FALSE
SRC,SANTRAGACHI JN,22.58393,88.284011,TRUE
RMJ,RAMRAJATALA,22.587778,88.295438,FALSE
DGNR,Durganagar,22.650758,88.419,FALSE
MPA,MANAPARAI,10.60756201,78.41776524,FALSE
BHGN,BHILGAON,26.354394,93.926117,FALSE
SMDM,SAMUDRAM,10.652687,78.493545,FALSE
KLS,KOLATUR,10.700678,78.547696,FALSE
CHB,CHABUA,27.48142071,95.17205813,FALSE
DEO,DEOKALI,27.977317,80.705156,FALSE
CHNR,CHHAN ARORIAN,32.46131096,75.35904533,FALSE
BDHY,BUDHI,32.440429,75.432931,FALSE
CKKN,CHAK KALAN,32.083103,75.623498,FALSE
BNGL,BHANGALA,32.01951482,75.61231335,FALSE
CDH,Chakdaha,23.078406,88.529672,FALSE
CGH,CHOLANG,31.61726,75.639894,FALSE
DIC,DAHISAR,19.250166,72.859587,FALSE
CHN,Chhina,31.902255,75.271993,FALSE
MLYA,Maliya,22.831668,88.136281,FALSE
DMU,Dhamua,22.290179,88.392178,FALSE
DON,DERAWAN HALT,23.230257,76.104438,FALSE
BSP,BILASPUR JN,22.057473,82.167585,TRUE
DLB,DAULATABAD,19.916367,75.210494,FALSE
DHT,DHAMARA GHAT,25.590821,86.599522,FALSE
DLGN,DHALGAON,17.1209672,74.9887134,FALSE
DKY,DHOKI,18.353216,76.102989,FALSE
DLSR,DALHOGI ROAD,32.289064,75.750843,FALSE
DRBR,Deoraha Baba Road,26.283979,83.871091,FALSE
DLR,DULLAHAPUR,25.799898,83.423264,FALSE
DCAB,DCAB,21.226612,81.477969,FALSE
DKE,DIHAKHO,25.427907,93.126587,FALSE
CABN,BHILAI CABIN,21.236052,81.499084,FALSE
DNEA,DANEA,23.799131,85.658334,FALSE
DPLN,Diplana,29.18257263,74.88112288,FALSE
KMI,KUMHARI,21.243782,81.516054,FALSE
DOW,Davol,22.39911,72.953112,FALSE
DHR,DHARNAODA,24.592205,77.099253,FALSE
SZB,SARONA CABIN,21.25327191,81.57361633,FALSE
DHPR,DAPPAR,30.51764095,76.80750986,FALSE
R,RAIPUR JN,21.256462,81.629328,TRUE
WRC,W R S COLONY PH,21.277968,81.639183,FALSE
URK,URKURA,21.289034,81.644569,FALSE
DUMR,Dumra,26.576993,85.533639,FALSE
DISA,DISA,24.2371252,72.1796003,FALSE
CKV,CHERUKUVADA,16.58967159,81.42156278,FALSE
LKO,LUCKNOW,26.830675,80.925291,FALSE
DLI,OLD DELHI,28.661816,77.228356,FALSE
MDH,MANDHAR,21.33807,81.704606,FALSE
SLH,SILIARI,21.426336,81.755534,FALSE
BKTH,BAIKUNTH,21.4976724,81.7800294,FALSE
CHV,CHARVATTUR,12.213321,75.15435,FALSE
CDRA,CHANDERA,12.179818,75.168292,FALSE
BYL,BELHA,21.961973,82.077189,FALSE
PUG,PUNGGUDI,10.748083,78.620151,FALSE
TPJ,TIRUCHIRAPPALLI,10.794067,78.685355,FALSE
CHBT,CHAKARBHATHA,22.003082,82.112168,FALSE
DTRD,Diyatara Road,27.73359625,72.83991879,FALSE
IB,IB,21.815777,83.948781,FALSE
KGP,KHARAGPUR JN,22.341432,87.328456,TRUE
FLR,PHULESWAR,22.47787564,88.1160489,FALSE
DHH,Dinhata,26.0707762,89.5868746,FALSE
DKDP,Dakshin Durgapur,22.308871,88.399338,FALSE
DJRZ,To Darjeeling,26.8521353,88.3332302,FALSE
DJG,DULIAJAN,27.367712,95.306952,FALSE
DKM,DIKOM,27.46422657,95.08067428,FALSE
DHNA,Dhachna,25.64647321,87.98693869,FALSE
JTIN,Jethian,24.92954815,85.31412773,FALSE
DMR,Dharmanagar,24.366946,92.168247,FALSE
DPDP,Dhapdhapi,22.315994,88.459855,FALSE
ENB,Ellenabad,29.44410399,74.65793411,FALSE
DLCR,Dullabcherra,24.505297,92.477671,FALSE
DVH,Devi Halt,21.706411,78.86207,FALSE
DGX,Dagaon,26.444446,92.613689,FALSE
DKWA,Dokwa,28.579787,75.323364,FALSE
DUH,Dudda,13.08842214,76.2042468,FALSE
DHI,Dhule,20.887752,74.768847,FALSE
DHU,Dhubulia,23.483546,88.441145,FALSE
DOGL,Donigal,12.90404781,75.73412168,FALSE
DSM,DARASURAM,10.944384,79.356384,FALSE
DWX,DEWAS,22.977556,76.051191,FALSE
DOR,DUNDARA,25.895799,72.796892,FALSE
DMH,Dauram Madhepura,25.908513,86.782638,FALSE
DPK,Dholipal,29.76082671,74.25159995,FALSE
AHO,ADARSHNAGAR,26.41157993,74.65343249,FALSE
DNN,Dina Nagar,32.134789,75.467351,FALSE
DPC,Darliput,18.365186,82.746519,FALSE
DWK,DWARKA,22.251023,68.980434,FALSE
RJN,RAJ NANDGAON,21.101186,81.039019,FALSE
DOZ,DAURAI,26.395604,74.619546,FALSE
PMS,PARMALKASA,21.140859,81.09869,FALSE
DOC,Daun Kalan,30.37921906,76.45856896,FALSE
MXA,MARAUDA,21.15958,81.35973,FALSE
BQF,BARAHMUAFI,25.039892,81.009932,FALSE
DOE,DEORI,23.298435,80.009808,FALSE
DRHI,DAGARHKERI,22.08127321,76.82640176,FALSE
DGN,DONGARGAON,21.641314,76.364067,FALSE
KBSN,KASBE-SUKENE,20.072296,74.027149,FALSE
KW,KHERVADI,20.046948,73.973978,FALSE
ODHA,ODHA,20.01601,73.910456,FALSE
NK,NASIK ROAD,19.947627,73.841897,FALSE
LT,LAHAVIT,19.852905,73.815119,FALSE
KJMG,KANJUR MARG,19.128181,72.928041,FALSE
GC,GHATKOPAR,19.085985,72.908591,FALSE
LTT,LOKMANYA TILAK TERM,19.07032,72.891739,FALSE
DRB,Debari,24.606987,73.805352,FALSE
FAP,FAKHARPUR HALT,28.846965,77.293521,FALSE
DSA,DELHI SHAHDARA,28.673098,77.293154,FALSE
GZT,GHAZIPUR GHAT,25.60028,83.604802,FALSE
PGN,PERUGAMANI,10.889271,78.54751,FALSE
DMV,DIMAPUR,25.905702,93.727816,FALSE
DWF,DUDH SAGAR WATER FALLS,15.31333714,74.31403358,FALSE
FSG,PHURSUNGI,18.455829,74.026016,FALSE
FLU,Phulia,23.229897,88.49634,FALSE
DPS,Dangoaposi,22.167964,85.59273,FALSE
DZKT,Durga Chak Town,22.066831,88.136032,FALSE
EPR,Mumbai Elphinstone Road,19.00694,72.835426,FALSE
ELL,Eraligu,24.665398,92.332631,FALSE
DLN,DILDARNAGAR JN,25.419424,83.668324,TRUE
DNWH,Daniyawan Bazar Halt,25.43450362,85.29089511,FALSE
AHM,AHIMANPUR,25.252404,82.511544,FALSE
FA,FALNA,25.235808,73.234953,FALSE
DODH,Dodh,30.841607,74.521937,FALSE
DRGJ,DARAGANJ,25.44265,81.87999,FALSE
DQN,Dhanera,24.506528,72.032364,FALSE
DUMK,Dumka,24.289527,87.254975,FALSE
SRGM,SRIRANGAM,10.857918,78.696348,FALSE
GOC,PONMALAI GOLDEN ROCK,10.791837,78.709755,FALSE
DZK,Durgachak,22.082011,88.155274,FALSE
TPTN,TIRUCHIRAPALI TOWN,10.829084,78.702834,FALSE
UKV,UTTAMARKOVIL,10.877948,78.702346,FALSE
BXS,PICHCHANDARKOVL,10.881112,78.720236,FALSE
VLDE,VALADI,10.872869,78.757917,FALSE
MAND,MANDURAI,10.873068,78.786196,FALSE
LLI,LALGUDI,10.875733,78.813672,FALSE
KTTR,KATTUR,10.895834,78.855173,FALSE
PMB,PULLAMBADI,10.940214,78.917573,FALSE
KKPM,KALLAKKUDI PLGH,10.966119,78.948759,FALSE
KLGM,KALLAGAM,11.02561453,79.0054263,FALSE
SLTH,SILLAKKUDI,11.09563342,79.03686199,FALSE
ALU,ARIYALUR,11.150035,79.068318,FALSE
OTK,OTTAKOVIL,11.222726,79.109674,FALSE
VER,VELLUR HALT,11.242453,79.13845,FALSE
SNDI,SENDURAI,11.256462,79.168778,FALSE
MTUR,MATHUR,11.318107,79.205803,FALSE
ICG,ICHCHANGADU,11.3710038,79.21975512,FALSE
PNDM,PENNADAM,11.397963,79.219978,FALSE
TLNR,TALANALLUR,11.436374,79.24125,FALSE
VRT,VRIDDHACHALM TN,11.482273,79.279462,FALSE
DPD,DOSAPADU,16.468807,80.938771,FALSE
GAMI,Gogameri,29.16024403,75.03507564,FALSE
GANI,GHARNI,18.47697,76.758368,FALSE
DVN,DEVTHANA,19.274562,77.689981,FALSE
DXH,DUHAI,28.730283,77.480363,FALSE
DWLE,Dhauni,25.01032968,86.99304098,FALSE
DUI,DHURI JN,30.372741,75.866603,TRUE
FPS,Fatehpur Shekhawati,28.000728,74.971043,FALSE
DWJ,DWARKAGANJ,26.316418,82.109076,FALSE
DI,DOMBIVILI,19.218218,73.0869,FALSE
VK,VIKHROLI,19.11196,72.928312,FALSE
VVH,VIDYAVIHAR,19.079258,72.897181,FALSE
VGN,VANGAON,19.882845,72.763185,FALSE
EKR,Ekangarsarai,25.2224815,85.2322638,FALSE
GGN,GURGAON,28.489165,77.010739,FALSE
DTW,DATEWAS,29.893255,75.616682,FALSE
NAI,Nangi,22.500256,88.223984,FALSE
FN,Farukhnagar,28.467066,76.828486,FALSE
GDL,GONDAL,21.972471,70.795588,FALSE
GAH,Gawnaha,27.269839,84.520176,FALSE
GAL,GHATLA,27.731813,76.628452,FALSE
AI,ADIPUR,23.0770527,70.0786586,FALSE
CHG,MUMBAI CHINCHPOKLI,18.986789,72.832659,FALSE
DWZ,Dantewara,18.907733,81.354536,FALSE
DXR,DIGSAR,22.712403,71.499375,FALSE
FTD,Fatehabad Chowk Junction,23.009106,75.673338,TRUE
DZB,Dahina Zainabad,28.29107857,76.39169434,FALSE
TMLP,TIRUMALPUR,12.956333,79.673488,FALSE
CJE,KANCHIPURAM EAST,12.84113719,79.71204368,FALSE
DUJ,DUBRAJPUR,23.803358,87.378973,FALSE
DGU,DIGARU,26.173306,91.977861,FALSE
BRHU,BARAHU,26.12043338,92.13951242,FALSE
DML,DHARAMTUL,26.189127,92.36716,FALSE
BHGP,Bhagirathpur,27.326628,83.38771,FALSE
DHRY,DHALPUKHURI,25.981051,92.880626,FALSE
BRLF,BAR LANGFER S,25.755626,93.225136,FALSE
SLX,SELENG HAT,26.78343803,94.48276269,FALSE
DBRG,DIBRUGARH,27.46360657,94.93525791,FALSE
DIL,DILAWARNAGAR,26.9601891,80.6674744,FALSE
NDJ,NANDGANJ,25.54457,83.396867,FALSE
DYU,DIYURI,28.603253,79.87601,FALSE
JAT,JAMMU TAWI,32.706975,74.880117,FALSE
KNDI,KANDRORI,32.184403,75.668807,FALSE
DYP,Daryapur,26.182799,81.248588,FALSE
BMK,BIRANG KHERA,29.91256971,74.63586429,FALSE
DHRR,DHIRERA,28.363519,73.616355,FALSE
CBN,CHIT BARAGAON,25.744109,84.00154,FALSE
CPR,CHHAPRA,25.78832,84.725004,FALSE
DRI,DUMRI JUARA,25.748425,84.869395,FALSE
SEE,SONPUR JN,25.696849,85.166851,TRUE
FRDH,Faridaha Halt,25.557959,83.126022,FALSE
KLL,KALOL JN,23.244576,72.50363,TRUE
DNW,DANGARWA,23.401485,72.441253,FALSE
CHP,CHHAPI,24.034518,72.400221,FALSE
SOH,SIROHI ROAD,24.791042,73.039834,FALSE
TN,TUTICORIN,8.806109,78.155359,FALSE
GBA,GARHBETA,22.844562,87.320972,FALSE
ELM,ELIMALA,12.0686868,75.2308476,FALSE
GARA,Garha,26.426289,85.520966,FALSE
GJN,Gajner,27.9358522,73.0615538,FALSE
GIA,Garia,22.465959,88.404673,FALSE
ERL,ERANIEL,8.212549,77.308161,FALSE
VRI,VRIDHACHALAM JN,11.534965,79.316073,TRUE
MPLY,MEPPULIYUR,11.676385,79.306638,FALSE
PRKL,PARIKKAL,11.778527,79.370923,FALSE
KGZ,KARUNGUZHI,12.531919,79.91149,FALSE
PNDP,PANDILLAPALLI,17.171933,80.170234,FALSE
GLV,GULVANCHI,17.172707,75.05678,FALSE
GHH,GARHI HARSARU,28.43755,76.929697,FALSE
GOP,GOP JAM,22.05396965,69.90809078,FALSE
GDZ,Gundardehi,20.948836,81.302351,FALSE
GDB,GIDDARBAHA,30.201319,74.663342,FALSE
GJW,Gajuwala,29.585509,75.871735,FALSE
GMIA,GUMIA,23.802651,85.828922,FALSE
GDHA,GODHA,28.005897,78.141225,FALSE
GHUM,Ghoom,27.008643,88.254223,FALSE
LRJ,LAKSAR JN,29.754038,78.019628,TRUE
GSDH,GARSANDA HALT,25.142617,86.011307,FALSE
GELA,Ghadela Halt,21.714044,78.888017,FALSE
GHQ,GARHWA,24.1751953,83.8132154,FALSE
GDV,GUDIVADA JN,16.429888,80.987594,TRUE
GNDI,GONDWALI,24.217438,82.519981,FALSE
KEI,KASHI,25.326564,83.031939,FALSE
BBRM,BABA BHAGWAN RAM HALT,25.31588767,83.03840618,FALSE
VYN,VYASNAGAR,25.29701,83.071351,FALSE
GNK,Garhnokha,25.09724423,84.12283778,FALSE
BHBV,BLOCK HUT B,25.274869,83.102203,FALSE
BSB,VARANASI JN,25.327281,82.986468,TRUE
DKI,DHARMKUNDI,22.51203837,77.55101444,FALSE
NGL,NANGAL,29.832554,77.62227,FALSE
MOZ,MUZAFFARNAGAR,29.468689,77.707807,FALSE
DRLA,DAURALA,29.114015,77.70616,FALSE
MDNR,MODINAGAR,28.827907,77.571716,FALSE
BRI,BHIRINGI,22.227752,76.941024,FALSE
GEDE,Gede,23.491197,88.786737,FALSE
THK,THAKRULI,19.225768,73.097678,FALSE
GHE,GHEVRA,28.691982,76.998536,FALSE
GHA,GOLEHWALA,30.789872,74.704406,FALSE
GAW,Gainjahwa,27.45465576,82.24506479,FALSE
GNZ,Gahndran Halt,31.117935,75.424279,FALSE
GH,GHUGHULI,27.05395161,83.71377455,FALSE
SJGH,SARAI JAGDISH,25.30009,82.365134,FALSE
KARD,KAMAN ROAD,19.33655,72.919123,FALSE
AML,AMALSAD,20.811373,72.956092,FALSE
GTQ,Gumtali Halt,31.065852,75.636453,FALSE
GLD,Ghelda,23.36169342,72.20310173,FALSE
LRJC,LAKSAR NORTH CABIN,29.767009,78.00176,FALSE
GCT,GHAZIPUR CITY,25.583144,83.568045,FALSE
GIS,Garhi Sandra,26.668256,77.76513,FALSE
GUV,GURUVAYUR,10.596896,76.045457,FALSE
EOCM,EOCM,25.315812,83.196038,FALSE
KCA,KUCHMAN,25.318878,83.21503,FALSE
SLD,SAKALDIHA,25.331472,83.289193,FALSE
TLAM,TULSI ASHRAM,25.34227434,83.35123572,FALSE
DHA,DHEENA,25.354392,83.423069,FALSE
DTVL,DATIVLI,19.187012,73.059049,FALSE
KLMG,KALAMBOLI GOODS,19.035116,73.114949,FALSE
BHCL,BAHORA CHANDIL,25.364918,83.489726,FALSE
ZNA,ZAMANIA,25.373856,83.54365,FALSE
DRV,DARAULI,25.393753,83.601802,FALSE
USK,USIA KHAS,25.434324,83.706967,FALSE
PEN,PEN,18.73560446,73.08679785,FALSE
GKA,Gokhula,27.069813,84.539763,FALSE
CMC,CHEMANCHERI,11.405279,75.720039,FALSE
ETR,ELATTUR,11.346337,75.741119,FALSE
GPBN,Gandhi Park Halt,18.652066,77.893393,FALSE
CLT,KOZHIKODE,11.246234,75.780407,FALSE
FK,FEROK,11.1749722,75.8302845,FALSE
PGI,PARPANANGADI,11.04591,75.861006,FALSE
BPZA,BHARATHAPUZHA H,10.758914,76.290829,FALSE
VTK,VALLATHOL NAGAR,10.731563,76.280933,FALSE
BWH,BHADAURA,25.4504253,83.738354,FALSE
GIO,Goriyan,27.547928,75.26559,FALSE
GLA,GARLA,17.487076,80.139236,FALSE
GOD,GIDARPINDI,31.152633,75.124514,FALSE
GVH,Govind Garh,27.499556,76.988058,FALSE
GRB,GARHDHRUBESWAR,23.509341,86.617006,FALSE
GNW,Gangiwara,22.097988,78.846139,FALSE
GRI,GURIYA,25.998261,73.955291,FALSE
HBE,Habibpur,23.211967,88.538423,FALSE
GWV,GOWDAVALLI,17.609541,78.468191,FALSE
GLGT,Golaghat,26.508626,93.9611898,FALSE
MDRR,MADHAVNAGAR ROA,23.78661021,80.39482433,FALSE
GMD,GURAMKHEDI,22.68220648,78.07782073,FALSE
HGA,Hogla,22.255044,88.452384,FALSE
BGTA,BAGRA TAWA,22.6307113,77.9937073,FALSE
AIA,AJARAKA,27.959391,76.564209,FALSE
GNJ,GUNJI,15.54311556,74.47936742,FALSE
GPB,GHATPRABHA,16.2407189,74.75982295,FALSE
GTRA,GOTRA HALT,28.807889,77.30096,FALSE
GLTA,GAHLOTA,26.67237152,74.96755654,FALSE
GNA,GONEANA,30.318715,74.90948,FALSE
GJS,Gajsinghpur,29.658053,73.436739,FALSE
GJUT,GANGSAR JAITU,30.445082,74.879511,FALSE
GUS,GHUMASAN,23.378699,72.449853,FALSE
GSD,Ghosunda,24.871222,74.534527,FALSE
HBP,HARPAR BOCHAHA,25.60343734,85.75716073,FALSE
GLE,Gajulaguden,17.609727,80.657904,FALSE
GOPG,Gopalganj,26.454202,84.435547,FALSE
GOK,GOKARNA ROAD,14.582791,74.367197,FALSE
CS,KANNUR SOUTH,11.866899,75.400253,FALSE
GNL,Gongle,21.222011,80.147349,FALSE
ETK,ETAKKOT,11.806195,75.443797,FALSE
GQN,Garhani,25.41189315,84.56961566,FALSE
GNC,Gandhinagar Capital,23.233379,72.629162,FALSE
GUA,Gua,22.218519,85.381896,FALSE
HKH,Haranya Kheri,22.583661,75.776745,FALSE
GVL,Gudlavalleru,16.348371,81.046037,FALSE
GWYR,Greenways Road,13.0202759,80.25171539,FALSE
GSP,Gurdaspur,32.044111,75.420769,FALSE
HKD,Hailakandi,24.680276,92.56789,FALSE
GNPR,Gunupur,19.0690589,83.8099599,FALSE
GULR,GULER,32.004278,76.151266,FALSE
GSW,GURSAR SHNEWALA,30.13892651,74.8861199,FALSE
HAPA,HAPA,22.468974,70.11814,FALSE
GZN,NEW GHAZIABAD,28.674404,77.438008,FALSE
HPT,HOSPET JN,15.286807,76.38578,TRUE
HLZ,Haldia,22.045284,88.06589,FALSE
HEM,HIMAYATNAGAR,19.416709,77.868855,FALSE
HTD,HATUNDI,26.35427916,74.6445661,FALSE
HLAR,HOLE ALUR,15.81959,75.646461,FALSE
HPP,HARPALPUR,25.290501,79.335461,FALSE
